lat,lon,type,company,name
40.446374069275095,49.70095361852881,competitor,abb,İdeal market (Hökməli)
40.4467429,49.7746598,competitor,abb,Respublika DYP
40.44131784918866,49.74818651483471,competitor,abb,Bazarstore (Höküməli)
40.523947,49.687323,competitor,abb,Araz market (Saray)
40.511532,49.941772,competitor,abb,Araz Market (Məhəmmədi)
40.543519,49.662952,competitor,abb,Araz Market (Ceyranbatan)
40.06560134887695,47.189884185791016,competitor,abb,Hindarx qəsəbəsi
40.04389591992003,47.44712674755466,competitor,abb,Bazarstore (Ağcabədi)
39.74848289323667,47.52689583188733,competitor,abb,Xocavənd rayon MRX
40.05174789108378,47.44438540181161,competitor,abb,ABB-nin Ağcabədi filialı
40.040845830263585,47.44186014616106,competitor,abb,Ağcabədi Xəstəxana
40.240761,47.076033,competitor,abb,Ağdam 4 yol
40.121478,47.105222,competitor,abb,Oba Market (Xındırıstan)
Səyyar,Səyyar,competitor,abb,Səyyar ATM
40.163327,47.156348,competitor,abb,Quzanlı (market)
40.632770,47.572907,competitor,abb,Store market
40.5593118849288,47.428207445752946,competitor,abb,Ləki Nur market
40.573779,47.324767,competitor,abb,Halal market (Ağdaş)
40.648036,47.471287,competitor,abb,Ağdaş Market
40.55931628166554,47.428209778066986,competitor,abb,Ləki Dəmir Yolu Stansiyası
40.640642,47.470164,competitor,abb,Birinci Market (Ağdaş)
40.63019365175335,47.46457721515742,competitor,abb,Birinci Market
40.538446,47.424371,competitor,abb,Ləki Market
41.112131,45.440719,competitor,abb,ABB-nin Ağstafa filialı
41.113903096772376,45.44012155349091,competitor,abb,Əsədoğlu Market
41.11051669744541,45.43690289195264,competitor,abb,Dərya Market
41.387223,45.182483,competitor,abb,Böyük kəsik stansiyası (Market)
41.12317416863878,45.44745573104018,competitor,abb,Ağstafa Kəsəmən 2
41.120916859406655,45.46100211841675,competitor,abb,"Xatai kəndi, Tataroğlu market"
41.11532180663432,45.479006333575704,competitor,abb,Göyçə market (Ağstafa)
41.11478547873437,45.44700387289946,competitor,abb,Ağstafa Kəsəmən 1
41.09352470669974,45.513117202191594,competitor,abb,Ailəm Market
41.05870952082634,45.52258079883393,competitor,abb,Rəşidoğlu market
40.566603,48.391684,competitor,abb,Bolmart market (Ağsu)
40.566681,48.390917,competitor,abb,"""Şirvan"" şadlıq evi"
40.55865511530523,48.403436828794405,competitor,abb,İRİ market (Ağsu)
38.4479518960598,48.875395081461605,competitor,abb,OBA market (Astara)
38.464560,48.872644,competitor,abb,Optimal Market (Astara)
39.153612,45.442724,competitor,abb,Vergi İdarəsi
41.7102966,46.2697115,competitor,abb,Qabaqçöl qəsəbəsi
41.7219367,46.3971851,competitor,abb,İdeal Market (Balakən)
41.7259131,46.4114317,competitor,abb,Bal Məkan market (Balakən)
41.6475155,46.5352563,competitor,abb,İcra nümayəndəliyi (Katex)
41.70253953958725,46.4276518120216,competitor,abb,Ekonom Market (Balakən)
41.71960449605561,46.415280436658975,competitor,abb,Oba market (Balakən)
41.6224431,46.3887313,competitor,abb,Mağaza (Kortala kəndi)
41.721711,46.418159,competitor,abb,Kamil Market (Balakən)
39.642694,47.690111,competitor,abb,Oscar YDM (Daşburun)
39.630939,47.707214,competitor,abb,Mandarin Market (Beyləqan)
39.772857666015625,47.62112045288086,competitor,abb,Mərkəzi Xəstəxana (Beyləqan)
39.7666989,47.876665,competitor,abb,Oscar YDM (Daşburun)
40.368789,47.105262,competitor,abb,Bolmart (Bərdə)
40.373889,47.122778,competitor,abb,ABB-nin Bərdə filialı
40.376111,47.134444,competitor,abb,Bazarstore Market (Bərdə)
39.455388,48.545808,competitor,abb,ABB-nin Biləsuvar filialı
40.412184,49.840771,competitor,abb,Z.Bünyadov prospekti (Yerüstü keçid)
40.472185,49.834165,competitor,abb,Araz Market (Binəqədi)
40.540970,49.783317,competitor,abb,Grandmart market (Novxanı)
40.431985,49.842676,competitor,abb,Oba market (Rəsulzadə qəsəbəsi)
40.431699,49.769746,competitor,abb,A-Plus Store (Sulutəpə)
40.432354,49.866710,competitor,abb,Baksol Metak şirkəti
40.413224,49.838148,competitor,abb,Oba market (S.Bəhlulzadə)
40.425752,49.843798,competitor,abb,Rahat Market (Binəqədi)
40.43903980390977,49.84441356492325,competitor,abb,Soliton (Qəsəbə mərkəzi)
40.425150,49.826468,competitor,abb,Oba Market (Binəqədi)
40.432162,49.804411,competitor,abb,Elmar Market (Binəqədi)
40.46598610774985,49.82946053568206,competitor,abb,Favorit Market (Binəqədi)
40.495252,49.855148,competitor,abb,Rahat Market (Mehdiabad)
40.437115,49.801995,competitor,abb,Araz market (Biləcəri qəsəbəsi)
40.46761502581352,49.622689251742344,competitor,abb,Oba market (Müşviqabad)
40.42578125,49.818824768066406,competitor,abb,Rahat market (9-cu MKR)
40.421162,49.814681,competitor,abb,Bolmart supermarket (9-cu MKR)
40.416279,49.833863,competitor,abb,Grand supermarket (8-ci MKR)
40.418736,49.810984,competitor,abb,Favorit supermarket (9-cu MKR)
40.41465012957297,49.76827137827392,competitor,abb,Rahat market (Xocahəsən)
40.46753257446363,49.84231164928107,competitor,abb,Rahat Market (Binəqədi şössesi)
40.426657,49.849794,competitor,abb,Araz market (7-ci MKR)
40.41344323232291,49.82794167409921,competitor,abb,Oba market (Binəqədi)
40.413922,49.843966,competitor,abb,Bizim Market (Binəqədi)
40.463923,49.629655,competitor,abb,Rahat market (Müşviqabad)
40.413839,49.803859,competitor,abb,Safa store (9 mkr)
39.215229,48.525204,competitor,abb,Oba market (Cəlilabad)
39.212246,48.504805,competitor,abb,ABB-nin Cəlilabad filialı
39.212265,48.505136 ,competitor,abb,ABB-nin Cəlilabad filialı
39.11820132392511,48.59439570246162,competitor,abb,Asiman Market (Göytəpə)
39.21109254745534,48.50612612544456,competitor,abb,"Market, Mirzəli Hüseynzadə küç"
39.26638016949251,48.5023440349456,competitor,abb,Oba market (Alar kəndi)
38.956311,45.631555,competitor,abb,Avtovağzal
38.956336,45.629442,competitor,abb,Rabitə idarəsi
40.523939760706085,46.08170728310632,competitor,abb,ABB-nin Daşkəsən filialı - 1
40.523939760706085,46.08170728310632,competitor,abb,ABB-nin Daşkəsən filialı - 2
40.523353001815735,46.08261776290432,competitor,abb,Daşkəsən Market
39.59665280084392,47.153582134639294,competitor,abb,Bazarstore (Füzuli)
39.4478445,47.3404235,competitor,abb,Horadiz market
39.5594237,47.566481,competitor,abb,"Füzuli, Əhmədbəyli kəndi"
40.576428,45.808638,competitor,abb,ABB-nin Gədəbəy filialı
40.57215910675314,45.80605010948782,competitor,abb,Dadaş market (Gədəbəy)
40.66194607921284,45.47864818127052,competitor,abb,Şınıx kəndi
40.502506644668244,45.75588957205038,competitor,abb,Market (Gədəbəy)
40.659640423995974,45.80808174961761,competitor,abb,Slavyanka
40.59737322448654,45.602710735222225,competitor,abb,Novo-Saratovka kəndi
40.576428,45.808638,competitor,abb,ABB-nin Gədəbəy filialı
40.58222707606838,45.80520595114627,competitor,abb,Gədəbəy Qızıl mədəni
40.6788172747948,46.41097516187645,competitor,abb,FHN Mülki Müdafiə Briqadası
40.71083725084026,46.376986340737,competitor,abb,Nicat market (Z. Hacıyev küç. ilə kəsişməsi)
40.67081847684641,46.37643392091075,competitor,abb,Maxi Market - 1
40.639995,46.339050,competitor,abb,Sevimli market - Gülüstan
40.688130530087555,46.35228814930942,competitor,abb,Metro market
40.68702083480114,46.375527204174574,competitor,abb,Həsən market
40.696967,46.374950,competitor,abb,Gəncə Güllər market
40.705671,46.366488,competitor,abb,Maxi Market - 2
40.697332,46.357009,competitor,abb,Meqa market (Gəncə)
40.68176422482345,46.36232296818081,competitor,abb,Bazarstore market (Xoyski küç.)
40.70985144740438,46.36712269558923,competitor,abb,Orxan market
40.660912,46.340420,competitor,abb,Oba market (İ. Qayıbov)
40.64765391103091,46.3739075561145,competitor,abb,Malikoğlu market
40.644512958500634,46.344169901569735,competitor,abb,OBA market (Gülüstan qəsəbəsi)
40.715510354612526,46.36919808454821,competitor,abb,Oba market (Azərbaycan küçəsi)
40.674912962811256,46.34291614263309,competitor,abb,AL market (Gəncə)
40.591753,46.320091,competitor,abb,Gold Əminə (Göyçay)
40.720589,46.399607,competitor,abb,Poçt 21 (Gəncə )
40.682654152203234,46.355966852856284,competitor,abb,Oba market (Qəmbər H. küç.)
40.673112276851136,46.356629109734776,competitor,abb,Oba market (Abbaszadə küç.)
40.69490799903645,46.36624591570782,competitor,abb,Avtovağzal (Gəncə)
40.66610706742961,46.361184430837284,competitor,abb,Oba market (Nərimanov küç.)
40.686575507383694,46.386988604846174,competitor,abb,Gəncə Alüminiumçular
40.680183,46.358832,competitor,abb,Yeni Gəncə market
40.65614147037462,46.367216857759935,competitor,abb,Aptek (Aşıq Ələsgər küç.)
40.514488220214844,46.32265090942383,competitor,abb,Poçt (Hacıkənd)
40.66232020663183,46.316486471004325,competitor,abb,Oba market (Təbriz küç.)
40.674658,46.334370,competitor,abb,GƏNCƏ MEHMANDAROV ARAZ M
40.69802214603583,46.35498769205732,competitor,abb,Oba market (Kəpəz)
40.667885589623694,46.35421889072551,competitor,abb,ABB-nin Gəncə filialı
40.679356,46.350109,competitor,abb,Delfin market (Gəncə)
40.71877375410452,46.35380144423876,competitor,abb,FAMA market (Gəncə)
40.680022638664894,46.386754210882145,competitor,abb,Oba market (Nərimanov küç.)
40.67983472562637,46.3608138940871,competitor,abb,"""Gəncə"" mehmanxanası"
40.66543078042121,46.45306484976036,competitor,abb,Məcburi köçkünlər qəsəbəsi (Kəpəz)
40.7086722,46.3559315,competitor,abb,Nur market (Gəncə)
40.674790,46.369978,competitor,abb,Bazarstore market (Nərimanov)
40.68655176009785,46.42680254923436,competitor,abb,"""Detal Alüminiy"" zavodu"
40.6024404,46.7798901,competitor,abb,Mega market (Goranboy)
40.4210013,46.5704388,competitor,abb,Ağcakənd kəndi (Mağaza)
40.6350061,47.7579344,competitor,abb,XL market (Göyçay)
40.5806563,47.8065966,competitor,abb,Ləkçıplaq kəndi (Göyçay)
40.649875804889035,47.725107250830376,competitor,abb,Bolluq Kəndimiz (Göyçay)
40.568960,47.766780,competitor,abb,Qızılağac market (Göyçay)
40.6578618,47.7514585,competitor,abb,Xəstəxana (Göyçay)
40.586315,47.6930619,competitor,abb,Dəniz market (Göyçay)
40.650092,47.739047,competitor,abb,Nar market (Göyçay)
40.6387758,47.7388978,competitor,abb,Grand market (Göyçay)
40.615055084228516,48.01321792602539,competitor,abb,Poçt (Qaraməryəm)
40.580935,46.323174,competitor,abb,Balmart market (Göygöl)
40.58438055454058,46.32713979777223,competitor,abb,Gold Əminə market (Göygöl)
40.70163449171468,46.28085693051547,competitor,abb,Balçılı kəndi (Göygöl)
40.019351,48.953950,competitor,abb,“Qədirxum” restoranı (Hacıqabul)
40.0446401,48.9350715,competitor,abb,Oba market (Hacıqabul)
Səyyar,Səyyar,competitor,abb,Səyyar ATM - Hadrut
39.8697496,48.0591736,competitor,abb,ABB-nin İmişli filialı
39.8697496,48.0591736,competitor,abb,ABB-nin İmişli filialı
39.7431265,48.0017707,competitor,abb,Yaşıl market
39.705208,48.055671,competitor,abb,Sərfəli market
39.860772,48.062889,competitor,abb,İmişli - Ailəm market
40.744335,48.035809  ,competitor,abb,Bizim market (İvanovka k.)
40.785185755946756,48.148832691677796,competitor,abb,ABB-nin İsmayıllı filialı - 1
40.79271532791891,48.169611422364035,competitor,abb,İsmayıllı market
40.780207899689216,48.158922848125826,competitor,abb,İsmayıllı xəstəxana
40.732443,48.281610,competitor,abb,Sərhəd market (Lahıc)
40.78837644822651,48.14818636103082,competitor,abb,Mustafa market
40.11231758599875,46.04005736537025,competitor,abb,Kəlbəcər
39.41259555672917,45.1211206190765,competitor,abb,Qaz idarəsi
40.32826396707835,48.14812618465529,competitor,abb,Efi market
40.34572111057594,48.14701402079077,competitor,abb,Poçt (Kürdəmir)
40.351643,48.162422,competitor,abb,Bolmart (Kürdəmir)
40.345717,48.147349,competitor,abb,ABB-nin Kürdəmir filialı
40.380251,48.184177,competitor,abb,Kürdəmir Arif market
40.336139,48.151694,competitor,abb,Oba market (Kürdəmir)
40.115967,48.099909,competitor,abb,Oba market (Mollakənd)
40.303571,48.261652,competitor,abb,Karrar kəndi
40.256074,48.409077,competitor,abb,EDU market (Kürdəmir)
38.7713032637467,48.420164802598414,competitor,abb,Oba market (Lerik)
38.765647163778816,48.85237758792672,competitor,abb,Lənkəran şəhər Maliyyə İdarəsi
38.85652510403561,48.7482181314667,competitor,abb,Şağlaser kəndi (Ay işığı)
38.69654083251953,48.81938171386719,competitor,abb,Favorit market (Lənkəran)
38.75389236817951,48.85536031218073,competitor,abb,ABB-nin Lənkəran filialı - 1
38.759006,48.834747,competitor,abb,Bazarstore (Nizami küçəsi)
38.75902994400665,48.839270827122306,competitor,abb,Lənkəran Mərkəzi Xəstəxanası
38.782632,48.841864,competitor,abb,Müalicə Diaqnostika Mərkəzi (Lənkəran)
38.75389236817951,48.85536031218073,competitor,abb,ABB-nin Lənkəran filialı - 2
38.75389236817951,48.85536031218073,competitor,abb,ABB-nin Lənkəran filialı - 3
38.877864837646484,48.80789566040039,competitor,abb,Pibon market (Lənkəran)
39.0230945,48.6689756,competitor,abb,Bazarstore (Masallı)
39.026735,48.664782,competitor,abb,Rahat market (Masallı )
40.757251,47.082679,competitor,abb,Market (Yevlax)
40.77265114913743,47.047365815237264,competitor,abb,Bazar store (Mingəçevir)
40.77271892480843,47.02302420763618,competitor,abb,Təbriz küçəsi
40.76156509641441,47.05873221201858,competitor,abb,5+ market (Nizami küçəsi)
40.769875,46.998646,competitor,abb,"Araz market (Mingəçevir, Az.Dres qəsəbəsi)"
40.762267728097456,47.04789145909993,competitor,abb,Qədiroğlu (20 yanvar küç.)
40.75679684607236,47.06375321857951,competitor,abb,5+ market (Ş.İ.Xətai küç.)
40.771339,47.041057,competitor,abb,Araz market (Mingəçevir)
40.767829,47.056671,competitor,abb,Embawood (Mingəçevir)
40.7695367025998,46.98956992471116,competitor,abb,Qədiroğlu market (AZDRES)
40.767231,47.045919,competitor,abb,5+ market (M.Maqomayev küç.)
40.5088266,46.8130938,competitor,abb,Oba market (Naftalan)
39.225676,45.406456,competitor,abb,Hərbi şəhərcik (Təlim-tədris binası)
39.201103,45.412581,competitor,abb,Naxçıvan Tikiş Fabriki
39.208671,45.407789,competitor,abb,Bolmart (Naxçıvan)
39.217378,45.408321,competitor,abb,Naxçıvan şəhər İcra Hakimiyyəti
39.188050,45.378157,competitor,abb,Sənaye Malları Mağazası (Bulqan kəndi)
39.220879,45.407274,competitor,abb,Gənclik Ticarət Mərkəzi
39.200934,45.421690,competitor,abb,Reyhan market
39.202626,45.410540,competitor,abb,Aviakassa (Cəlil Məmmədquluzadə küç)
39.193341,45.409979,competitor,abb,Caman Market (Gömrük İdarəsi)
39.217445,45.402140,competitor,abb,Limon market
39.3762951,49.2478822,competitor,abb,Oba market (Nizami küçəsi)
39.38552138836381,49.24320310011082,competitor,abb,Oba market (Əsədov küçəsi)
40.389364,49.850059,competitor,abb,Azərişıq Baş İdarə
40.3962291,49.8755532,competitor,abb,Oba market (Əlicabbar Orucəliyev küç.)
40.4081377,49.8702131,competitor,abb,Azərbaycan gözdən əlillər cəmiyyətinin inzibati binası
40.39030628769046,49.84648598972087,competitor,abb,Araz market (Dostluq K/T)
40.399363,49.855252,competitor,abb,Azərbaycan Gənclər və İdman Nazirliyi
40.413547393954175,49.85578457315257,competitor,abb,ASAN 7
40.425189,49.906662,competitor,abb,Socar YDM (Ziya Bünyadov prospekti)
40.415868986129276,49.86867514517272,competitor,abb,Keşlə (Neptun Supermarket)
40.39478087355298,49.9500376529113,competitor,abb,Babək pr. (Sizin market)
40.416694,49.908860,competitor,abb,"""Azerfon"" MMC"
40.39602220254467,49.843002459137416,competitor,abb,Mənzil-kommunal təsərrüfatı dep.
40.411293,49.896965,competitor,abb,Keşkə stadionu
40.385283,49.850846,competitor,abb,Bolmart (Nərimanov)
40.372273,49.836737,competitor,abb,ABB Baş İdarə
40.396672,49.815462,competitor,abb,Neptun supermarket (Moskva p.)
40.417322,49.822512,competitor,abb,Alvadı market (4-cü MKR)
40.40681521433774,49.81293513798374,competitor,abb,Spar market (3-cü MKR)
40.398583,49.839810,competitor,abb,Bakı Sağlamlıq Mərkəzi
40.372165,49.836578,competitor,abb,"ABB,Baş İdarə"
40.379028,49.844066,competitor,abb,Fövqəladə Hallar Nazirliyi
40.401234,49.831350,competitor,abb,Olimpik Star idman kompleksi
40.393318,49.843006,competitor,abb,Adore Mart
40.409972,49.819026,competitor,abb,Oba market (3 MKR. ƏCƏMI)
40.419242,49.933865,competitor,abb,ABB-nin Nizami filialı-1
40.4000943,49.9389424,competitor,abb,Market (Çobanzadə küç.)
40.403811,49.959784,competitor,abb,Bizim Market (8-ci km)
40.405737,49.947720,competitor,abb,Oba market (8-ci km bazar)
40.3924261,49.8942294,competitor,abb,Oba market (Keşlə)
40.39774325650495,49.955289899635524,competitor,abb,142 saylı poçt
40.409342,49.956267,competitor,abb,Araz market (Naxçıvanski)
40.412667,49.933928,competitor,abb,Araz market (Planet ş/s)
40.415972,49.939291,competitor,abb,Bakımart market
40.4209338,49.9249186,competitor,abb,Optimal market (Tofiq Abbasov küç.)
40.403280,49.940502,competitor,abb,Oba market (Polis Taboru)
40.3861780131973,49.905875597114246,competitor,abb,Oba market (Mədəniyyət evi)
40.41491831036991,49.927172865974775,competitor,abb,Bravo market (Özbəkistan küçəsi)
40.413225,49.949429,competitor,abb,"Araz market (""Start"" idman kompleksinin yanı)"
40.40292,49.895034,competitor,abb,Veysəloğlu Ulduz fabriki
40.397263,49.953151,competitor,abb,Bestmart
41.03188412206423,47.60547318863613,competitor,abb,Xaçmaz kəndi
40.93882029457601,47.600632655273365,competitor,abb,Luksoil YDM
41.064666,47.463550,competitor,abb,Araz store (Oğuz)
41.06776302854087,47.46166590695176,competitor,abb,Oğuzmart
41.07513162361538,47.46630194724633,competitor,abb,ABB-nin Oğuz filialı
40.97129721343012,47.48912400230216,competitor,abb,Kərimli qəsəbəsi
38.908166,46.021242,competitor,abb,Qapıcıq ticarət mərkəzi
38.945438,45.826706,competitor,abb,Məişət evi (Sabir Dizə kəndi)
40.455673,50.337098,competitor,abb,Laçın Market (Pirallahı)
40.468143,50.326045,competitor,abb,Oba market (Pirallahı)
40.45951461791992,50.33545684814453,competitor,abb,Araz market (Pirallahı)
40.226955,49.575993,competitor,abb,Sahil Optimal
40.32605743408203,49.74203109741211,competitor,abb,"Oba market (Lökbatan, 28 May küç.)"
40.26524907348759,49.66529621561048,competitor,abb,Gəmiqayırma zavodu
40.166751861572266,49.46155548095703,competitor,abb,Oba market (Sabir küç.)
39.95484161376953,49.408084869384766,competitor,abb,Coşqun market (Qaradağ)
40.226876,49.583904,competitor,abb,Rifah market (Qaradağ)
40.32728576660156,49.71882629394531,competitor,abb,"Oba market (Lökbatan, D.Bünyadzadə küç.)"
40.296492,49.752394,competitor,abb,Socar YDM (Bakı-Səlyan şossesi) - 1
39.967448,49.409069,competitor,abb,Socar YDM (Bakı-Səlyan şossesi)
40.34317398071289,49.751800537109375,competitor,abb,Grandmart (Qobu)
40.08033752441406,49.4132080078125,competitor,abb,Qobustan İdeal market
40.083529059362924,49.41202043201628,competitor,abb,Qobustan - Təbriz market
40.299558085073855,49.66176516206742,competitor,abb,Puta qəs. (Oba market)
40.32234573364258,49.73484420776367,competitor,abb,"Lökbatan, 28 May küçəsi"
40.283416748046875,49.7291259765625,competitor,abb,Hərbi hissə (Qaradağ)
41.41997213788232,46.91745062045867,competitor,abb,Aydan market (Qax)
41.43002805615341,46.958456888706884,competitor,abb,Oğuz-Qax-İlisu yolu
41.415880579418754,46.90333256762513,competitor,abb,El Dost market (Qax)
41.390415,46.745077,competitor,abb,"""Stop"" market (Qax)"
41.089988,45.358857,competitor,abb,ABB-nin Qazax filialı - 1
41.096981,45.377598,competitor,abb,Qazax - Bazarstore
41.094810945647815,45.365615596889,competitor,abb,7 gözəl ticarət mərkəzi
41.089427,45.352479,competitor,abb,Göyçə market (Qazax)
41.240084496571846,45.263357940062775,competitor,abb,Market (Yuxarı Salahlı)
41.13504031365082,45.266065341406026,competitor,abb,Əsədoğlu market (Daş Salahlı)
41.09803950538207,45.342922309969794,competitor,abb,Murad market
41.22004754785183,45.12276684184158,competitor,abb,Elvin market (Qazax)
41.096924507411124,45.35013761924103,competitor,abb,İK market
41.097373,45.377244,competitor,abb,Avropa market (Qazax)
41.103200,45.338827,competitor,abb,Aviapetrol (Qazax)
40.981172,47.848992,competitor,abb,ABB Qəbələ filialı-1
40.9767587,47.8532103,competitor,abb,Qəbələ Mərkəzi Poçt
40.8605022,47.7572106,competitor,abb,Böyük Əmirli
40.9397161,47.6675996,competitor,abb,Nic kəndi
40.945222,47.944572,competitor,abb,Röya market (Vəndam)
40.97713211018328,47.84559539486955,competitor,abb,Qutqaşınlı küçəsi
40.84321652024895,47.727200647150994,competitor,abb,Ulduz market (Hacıalı)
40.9281958,47.801864,competitor,abb,Makromart market
40.928872,47.801910,competitor,abb,Araz market (Zarağan qəs.)
40.080623,49.413528,competitor,abb,Oba market (Qobustan)
40.53514055786753,48.913971206905494,competitor,abb,Ramil market (Qobustan)
41.362346,48.528652,competitor,abb,Quba Mega Store
41.357189,48.493482,competitor,abb,Quba Mərkəzi Xəstəxana
41.41895299584495,48.41726102389853,competitor,abb,Oba market (Qusar)
41.430196,48.441192,competitor,abb,Qusar Mərkəzi Xəstəxanası
39.88524638919933,48.53784214857403,competitor,abb,Nadir Ticarət mərkəzi
39.938093,48.364036,competitor,abb,ABB-nin Saatlı filialı
39.938093,48.364036,competitor,abb,ABB-nin Saatlı filialı
40.011417,48.470944,competitor,abb,SABIRABAD OBA
40.00424833500348,48.47037871300628,competitor,abb,Bazarstore (Sabirabad)
41.201596,48.981878,competitor,abb,OBA market (Şabran)
41.2000261,48.9846549,competitor,abb,Şabran Telekommunikasiya qovşağı
41.20963869417298,48.9966102775522,competitor,abb,Qayalı Market (Şabran DYV yanı)
41.2595909,48.9025509,competitor,abb,OBA market (Gəndob kəndi)
40.42174240141368,49.96990174653606,competitor,abb,A Plus Store
40.55756251609222,50.00794099965487,competitor,abb,Oba Market (Nardaran)
40.545716,49.916783,competitor,abb,Oba market (Kürdəxanı)
40.480817,49.986323,competitor,abb,Oba makret - Ramana
40.430535,49.957662,competitor,abb,Sərham market
40.525772,49.995601,competitor,abb,Xəyal Ticarət Mərkəzi
40.554935,50.022777,competitor,abb,Maştağa - Araz market
40.547473,49.911127,competitor,abb,İl komplex
40.444828,49.943353,competitor,abb,Araz market (Qırmızı küç.)
40.410986,49.968736,competitor,abb,Megastore market (Bakıxanov qəs.)
40.5651774,50.031049,competitor,abb,Bilgəh Qocalar Evi
40.442007,49.977136,competitor,abb,Yeni Ramanı Poçt 112
40.557957,49.887773,competitor,abb,Pirşağı 18 saylı mağaza
40.491417,49.954422,competitor,abb,Avromart Zabrat
40.420949,49.969015,competitor,abb,4 saylı ASAN Xidmət Mərkəzi
40.529252,50.011019,competitor,abb,Tac market (Maştağa)
40.459132,49.922743,competitor,abb,Balaxanı Poçt №6
40.52841304745526,49.99775520877097,competitor,abb,Bakı Ticarət Mərkəzi
40.45691,49.98757,competitor,abb,Oba market (Ramana)
40.506841,49.975514,competitor,abb,Araz market (Maştağa)
40.529156,49.874017,competitor,abb,Poçt Pirşağı
40.491643,49.944678,competitor,abb,İstilik kombinatl (Zabrat 2)
40.5436976893416,49.986414848985625,competitor,abb,Neptun supermarket (Nardaran)
40.500197,49.962166,competitor,abb,ABB - Maştağa DYP
40.532793,50.004612,competitor,abb,OBA market (parkın yanı)
40.47518200469756,49.94492408373571,competitor,abb,Oba market (Zabrat 1)
40.468433,50.014513,competitor,abb,Pətək supermarket (Şuşa şəhərciyi)
40.42310738251768,49.95607702855947,competitor,abb,Uluxanlı Ticarət Mərkəzi
40.436554,49.959343,competitor,abb,Sərham market
40.465812,49.945362,competitor,abb,Rahat market (Zabrat)
40.44219166561668,49.94242759789886,competitor,abb,Sabunçu Ticarət Mərkəzi
39.406574,45.571739,competitor,abb,Şahbuz Rabitə idarəsi
39.454915,45.682375,competitor,abb,Kolanı (icra nümayəndəliyi)
39.5941935,48.9035331,competitor,abb,Salyan Hacıoğlu
39.769696655130055,48.97645606869309,competitor,abb,İlkin-N MMC market
39.584365,48.971827,competitor,abb,Salyan Perla Mebel
39.589979,48.979980,competitor,abb,Salyan - Öz geyim
40.63758470739361,48.643366305560974,competitor,abb,Oba market (Şamaxı)
40.639797,48.639261,competitor,abb,Favorit market (Şamaxı)
40.638080,48.636420,competitor,abb,Şamaxı Universam
40.492518,48.680252,competitor,abb,OBA market (Şamaxı)
40.59005567252837,48.78277059720461,competitor,abb,Təklə kəndi (market)
40.706744204493546,48.63381503841992,competitor,abb,Çuxuryurd
40.601502,48.685747,competitor,abb,Şamaxı - Qayalı market
40.62618985492619,48.64697936760638,competitor,abb,VİP market
40.58859686756416,48.710497177489636,competitor,abb,ETM market
40.7883727,46.3221531,competitor,abb,Qarayeri qəsəbəsi
40.76619506836712,46.40602189588147,competitor,abb,ABB-nin Samux filialı - 1
40.926711261387624,46.30477480589314,competitor,abb,Yenikənd qəsəbəsi
40.371540,49.8366995,competitor,abb,Kitab evi-1
40.339497,49.805836,competitor,abb,Bizim Market (Badamdar)
40.351064,49.810626,competitor,abb,Araz market (Badamdar)
40.328854,49.818527,competitor,abb,Araz market (20-ci sahə)
40.30629905393148,49.82161226889155,competitor,abb,Ay market (Bibiheybət)
40.371540,49.8366995,competitor,abb,Kitab evi-2
40.318558,49.821734,competitor,abb,Bibiheybət məscidi
40.3532548,49.810131,competitor,abb,Xüsusi Müalicə Sağlamlıq Kompleksi
40.367878,49.835853,competitor,abb,İçərişəhər
40.370140,49.834495,competitor,abb,İnvestisiya Xoldinqi
39.705024,44.882971,competitor,abb,Sədərək Qaz İdarəsi
39.715318,44.880348,competitor,abb,Məişət evi (Sədərək kənd)
40.8576279,47.2439433,competitor,abb,Şəki Turan
41.20065640081308,47.192696888477144,competitor,abb,Karvansaray
41.1575006,47.1797249,competitor,abb,24 saat market
41.2035946,47.1789536,competitor,abb,Rəsulzadə prospekti (market)
41.2021738,47.1778313,competitor,abb,Ekonom Market (Şəki)
41.204403,47.167895,competitor,abb,Rahat market
41.2011884,47.168241,competitor,abb,Bazarstore (Şəki)
40.8756585,47.3442316,competitor,abb,Oba market (Sarıca kəndi)
41.1649494,47.1826243,competitor,abb,Dağdibi (market)
40.9760921,47.1216961,competitor,abb,"""Zirvə"" şadlıq evi"
41.2710919,47.0121229,competitor,abb,"""Ulduz"" market"
41.170646079723674,47.167501608026996,competitor,abb,Oba market (Rəsulzadə pr.)
41.1808773,47.2397094,competitor,abb,Orta zəhzid (market)
41.3271077,47.1143002,competitor,abb,Baş Göynük (mağaza)
40.9903792,47.0829386,competitor,abb,Muradoğlu market
41.2266250886393,47.18036562362362,competitor,abb,Dodu məh. (Ticarət Mərkəzi)
41.2117144,47.1336442,competitor,abb,Qoxmuq ərzaq mağazası
40.91224174293924,45.849760757744306,competitor,abb,Oba market (Düyərli kəndi)
40.83009862611042,46.02020803764185,competitor,abb,ABB-nin Şəmkir filialı - 1
40.82791863759396,46.03316042503847,competitor,abb,Oba market (N.Nərimanov küç.)
40.8270830,46.0275570,competitor,abb,20 Yanvar küçəsi (Aptek)
40.78054386242497,46.10962366307333,competitor,abb,Göysu market
40.80845508143643,46.011625364971025,competitor,abb,Zümrüd market (S.Vurğun küç.)
40.877960046983134,46.02822894818403,competitor,abb,Zümrüd market (Dəllər)
40.673725,45.949518,competitor,abb,“Ayan” marketin binası
40.906036376953125,46.18333435058594,competitor,abb,Şəmkir Kür qəsəbəsi
40.90403131093439,45.88809050306273,competitor,abb,Oba market (Zəyəm qəsəbəsi)
40.83558185619012,46.14895179949743,competitor,abb,Şəmkir DYS
40.844334551049386,46.0214808261822,competitor,abb,Oba market (Şəmkir küç.)
40.84469985961914,46.21489334106445,competitor,abb,Qaraçəmirli kəndi (ATS)
40.86807171178731,46.035563324060746,competitor,abb,Dəllər qəsəbəsi
40.736359349152686,45.876675387982445,competitor,abb,Çənlibel kəndi
40.88614001331207,45.823961127058915,competitor,abb,Oba market (Zəyəm Cırdaxan kəndi)
40.86296463012695,46.1319694519043,competitor,abb,"Şəmkir, Keçili kəndi"
40.75804138183594,46.13218307495117,competitor,abb,Əlihüseynli market (Seyfəli k.)
40.840772,46.039142,competitor,abb,Makromart
40.816968,46.013744,competitor,abb,Şəmkir Zirvə market
39.502980,45.025777,competitor,abb,Xanlıqlar kəndi
39.555615,44.983507,competitor,abb,Şərur Kompyuter təlim-tədris mərkəzi
39.550345,44.981579,competitor,abb,Şərur Dəmir Yolu Vağzalı
39.556266,44.985170,competitor,abb,Şərur DSMF
39.93533797580885,48.9277584293474,competitor,abb,Oba market (Şirvan)
39.9639619,48.9498982,competitor,abb,Şirvan - Mərkəzi Poçtu
39.96962896717166,48.943344837480076,competitor,abb,Şirvan - Zeytun Aptek
39.9603401,48.9456314,competitor,abb,Şirvan - Neptun market
41.0681426,49.1190027,competitor,abb,Oba market (Siyəzən)
41.0868391,49.10217,competitor,abb,Araz market (Siyəzən)
40.593644,49.678000,competitor,abb,ABB-nin Sumqayıt filialı
40.568932,49.691457,competitor,abb,Sumqayıt Hiper market
40.54812093252883,49.712974291484116,competitor,abb,Araz market (Saray)
40.57915557687467,49.69343567439931,competitor,abb,Grandmart (6-cı mkr.)
40.595535,49.584639,competitor,abb,Karbomid zavodu
40.564651,49.675762,competitor,abb,Qayalı market (11-ci MKR)
40.593644,49.678000,competitor,abb,ABB-nin Sumqayıt filialı
40.593644,49.678000,competitor,abb,ABB-nin Sumqayıt filialı
40.61885800632254,49.586052225107245,competitor,abb,Azərkimya zavodu
40.560942,49.708619,competitor,abb,Sumqayıt- Top market
40.619089,49.562501,competitor,abb,Qayalı market (Sumqayıt)
40.584182,49.679436,competitor,abb,Sumqayıt - Pioner market
40.5658478432792,49.62710993544676,competitor,abb,Sumqayıt - Qobu yolu
40.593644,49.678000,competitor,abb,ABB-nin Sumqayıt filialı
40.562602,49.684419,competitor,abb,Araz market (Sumqayıt)
40.593644,49.678000,competitor,abb,ABB-nin Sumqayıt filialı
40.583646,49.676909,competitor,abb,Oba market (2-ci mkr.)
40.556408,49.639655,competitor,abb,Socar YDM (Bakı-Quba)
40.590456827159166,49.665493378093814,competitor,abb,Əşya bazarı
40.61296717612092,49.59232415612692,competitor,abb,Etilen Polietilen Zavodu
40.557397,49.587704,competitor,abb,Grandmart (Stansiya Sumqayıt)
40.60041914443382,49.633033246771234,competitor,abb,Oba market (26-cı məhəllə)
40.584838,49.666696,competitor,abb,Sumqayıt (3-cü MKR) - Aptek
40.564045,49.708687,competitor,abb,Sumqayıt (17-ci MKR)
40.58327291972072,49.674347179299666,competitor,abb,Ordubad market
40.56568705898096,49.69668206177609,competitor,abb,Sumqayıt mall
40.5801370895433,49.68770429648758,competitor,abb,Elmar market (6-cı mkr.)
40.56370295833912,49.69660702468112,competitor,abb,Bazarstore (Sumqayıt)
40.638913,49.539608,competitor,abb,Dəmir yolu yaşayış massivi
40.56987518467765,49.675234217331294,competitor,abb,Araz market (11-ci mkr.)
40.5683442217651,49.69212633877863,competitor,abb,Qayalı market (10-cu MKR)
40.556300,49.609900,competitor,abb,Stansiya Sumqayıt
40.359425,50.071050,competitor,abb,OBA market (Çöllük küçəsi)
40.371024,49.978146,competitor,abb,Günəşli - Armstore
40.424564,50.102718,competitor,abb,Araz market - İmam Həsən məscidin yanı
40.3796364,49.9805445,competitor,abb,Xəzər market (Yeni Günəşli)
40.346833,49.990538,competitor,abb,ARDİN Nəqliyyatda Baş Polis İdarəsi
40.4125877,50.0025804,competitor,abb,Araz market (Əmircan)
40.4162485,49.9679667,competitor,abb,Qloriya ticarət mərkəzi
40.3756627,50.0855809,competitor,abb,Kənd Hövsan
40.38362669876616,49.98257632582618,competitor,abb,Araz market (Günəşli)
40.401503,49.978186,competitor,abb,Araz market (Qaraçuxur)
40.358718436343935,49.97771222518275,competitor,abb,Market - Zığ
40.39552044995272,50.33845869512729,competitor,abb,Gürgan OBA Market
40.420900,49.997200,competitor,abb,Bazarstore (Əmircan)
40.398562,49.976395,competitor,abb,Xəzər market (Qaraçuxur)
40.43295761125316,50.03292205500093,competitor,abb,Market - Yeni Suraxanı
40.36576372616282,50.2140806361463,competitor,abb,Oba market (Türkan 1)
40.4488784,50.1610618,competitor,abb,3 saylı Zeytun
40.365346,50.223002,competitor,abb,Oba market (Türkan 2)
40.393168,49.981710,competitor,abb,Araz market (Qaraçuxur)
40.385567,49.977402,competitor,abb,Oba market (Günəşli)
40.360341,50.075640,competitor,abb,Araz market (Hövsan)
40.433184,49.983698,competitor,abb,Bizim Market (Suraxanı)
40.391983,49.972153,competitor,abb,Oba market - Qaraçuxur
40.311059,50.003728,competitor,abb,Socar Xilasetmə
40.42225998815181,49.987756393493,competitor,abb,Oba market - Əmircan
39.758028,46.744986,competitor,abb,Bravo (Şuşa)
39.762900,46.748172,competitor,abb,Araz market (Şuşa)
40.348474572132915,46.93084437113342,competitor,abb,Oba market (Tərtər)
40.3421718,46.9310682,competitor,abb,ABB-nin Tərtər filialı
40.92818093292794,45.81789255357261,competitor,abb,Ticarət mərkəzi (Əyyublu kəndi)
40.9668139,45.6559002,competitor,abb,Araz market (Aşağıquşçu kəndi)
40.99266228364854,45.617062286730686,competitor,abb,ABB-nin Tovuz filıialı - 1
40.9867950,45.6043400,competitor,abb,Grand market
40.946900,45.741577,competitor,abb,Bazarstore (Qovular qəsəbəsi)
40.90065812603951,45.74772221553863,competitor,abb,OBA market (Hacılı kəndi)
40.980921,45.631120,competitor,abb,Əsədoğlu market
41.04345566976774,45.649950107518286,competitor,abb,Qaraxanlı kəndi
41.022179838902986,45.6074418253336,competitor,abb,Cəlilli  kəndi
40.936166475088335,45.80047298422321,competitor,abb,Oba market (Düz Qırıqlı)
40.904474,45.771252,competitor,abb,Alakol kəndi
40.505089324416296,47.658295254137954,competitor,abb,Mega market (Ucar)
40.505089324416296,47.658295254137954,competitor,abb,ABB-nin Ucar filialı - 1
40.51716706554899,47.660804530512515,competitor,abb,"""Ələkbər"" T/M"
40.51434285254126,47.64981570013317,competitor,abb,Oba market (Ucar)
40.494637072964125,47.664796648508165,competitor,abb,Bəyaz market
41.46372432119405,48.801711016277196,competitor,abb,Qayalı market
41.75776526118335,48.58542538868048,competitor,abb,Emin market
41.45830609370114,48.80237485368127,competitor,abb,Oba market (Xaçmaz)
41.43831975743837,48.80104403591704,competitor,abb,Xaçmaz KOB
41.622576,48.686001,competitor,abb,Xudat şöbəsi
41.564982,48.720352,competitor,abb,Kristal Ticarət Mərkəzi
41.447905917890296,48.79538092732107,competitor,abb,"""Qayalı Gold Xaçmaz"" market"
41.63116236931206,48.68173254694367,competitor,abb,Oba market (Xudat)
39.82279396846413,46.76207734060297,competitor,abb,Polis idarəsi
40.396078,49.843044,competitor,abb,Bazarstore Nəsimi
40.361758,49.963030,competitor,abb,Market - Gəncə
40.361348,49.956503,competitor,abb,"VİP Market, Sadıxcan küç"
40.377972,49.959938,competitor,abb,A+ market (Əhmədli)
40.376554,49.960465,competitor,abb,Oba market (N.Tusi küç.)
40.369442966270874,49.95565743010633 ,competitor,abb,İ.Zülfüqarov küç. - Oba
40.378044,49.865506,competitor,abb,25 saylı poçt
40.367433,49.959763,competitor,abb,Favorit market (Xətai)
40.38556199991127,49.94423270042216,competitor,abb,"Kənd Əhmədli,32 saylı poçt şöbəsi"
40.38383137823616,49.87024356170516,competitor,abb,Araz market (Xətai m/s)
40.372182,49.952682,competitor,abb,H.ASLANOV ARAZ M.
40.3791493,49.8786948,competitor,abb,ABB-nin Xətai fililalı
40.3791493,49.8786948,competitor,abb,ABB-nin Xətai fililalı
40.381100,49.965156,competitor,abb,Yaşıl market - Neapol
40.363272,49.934508,competitor,abb,Xəzər Dəniz Gəmiçilik
40.3584964,49.9426746,competitor,abb,Xəzər Dəniz Neft Donanmasının inzibati binası
40.3791493,49.8786948,competitor,abb,ABB-nin Xətai fililalı
40.362782,49.969740,competitor,abb,Bizim market (Günəşli)
40.36000237671684,49.96998251947099,competitor,abb,Premium market (Günəşli)
40.366632,49.962392,competitor,abb,Home market
40.392393,49.953553,competitor,abb,OBA market  (Məhəmməd Hadi)
40.38051641422077,49.86255735170676,competitor,abb,TAM Store (Xətai)
40.365718,49.944938,competitor,abb,APLUS - Xətai
40.381128,49.869159,competitor,abb,Oba market - Xətai
40.52058792114258,50.04142379760742,competitor,abb,Aptek 63 (Buzovna)
40.48192158158108,50.15694577703763,competitor,abb,Oba market (Mərdəkan)
40.51689963143232,50.10228723917505,competitor,abb,Araz market (Buzovna)
40.52771759033203,50.097679138183594,competitor,abb,Oba market (Buzovna qəs.)
40.4961051940918,50.198326110839844,competitor,abb,Fidan market
40.49152013344613,50.128911612990876,competitor,abb,Buta market (Şağan)
40.48486675015568,50.192971295497784,competitor,abb,Günəş market
40.47160910262088,50.10430247644211,competitor,abb,Socar YDM (Qala)
40.487765483014805,50.13811918080828,competitor,abb,Oba market (Mərdəkan)
40.5235595703125,50.09986114501953,competitor,abb,Bakı Ticarət Mərkəzi
40.5166194,50.1130179,competitor,abb,41 saylı poçt
40.419333,50.261524,competitor,abb,Bolmart - Zirə
40.52619628304033,50.06774970038911,competitor,abb,5+ market (Albalılıq)
40.440682,50.013566,competitor,abb,Socar YDM (Aeroport yolu)
40.490966796875,50.14175033569336,competitor,abb,Mərdəkan Ticarət Mərkəzi
40.4231071472168,50.10382080078125,competitor,abb,Araz market (Binə qəs.)
40.462781,50.082981,competitor,abb,Grandmart (Xəzər)
40.3653896,50.2947934,competitor,abb,Oba market (Zirə qəs.)
40.45683582893795,50.069529558118816 ,competitor,abb,Karqo (Binə qəsəbəsi)
40.375587463378906,50.285831451416016,competitor,abb,Super Market (Zirə)
40.456015862308035,49.73619548595569,competitor,abb,Oba market (Xırdalan)
40.484856,49.781844,competitor,abb,Qarabağ market
40.454525,49.744976,competitor,abb,Bizim market (Xırdalan)
40.471957,49.740496,competitor,abb,Seval market (Gənclər şəhərciyi)
39.905333492072145,46.7994996923394,competitor,abb,Oba market
39.517771626926155,47.03089620531888,competitor,abb,Hadrut - Bolmart
38.90725748651939,48.239932215420154,competitor,abb,"""Halal market"""
40.390197,49.793972,competitor,abb,Rahat market (Yasamal)
40.369403,49.810091,competitor,abb,Nəşriyyat
40.399647,49.805971,competitor,abb,Antiinhisar Müdafiəsi Dövlət xidməti
40.400967,49.821943,competitor,abb,Rahat market
40.4062887,49.8059686,competitor,abb,Meliorasiya və Su təsərrüfatı ASC
40.37450472475061,49.81907753239535,competitor,abb,Yasamal filialı - 2
40.3774733,49.8124621,competitor,abb,Araz market (Megasity)
40.39734649658203,49.79703903198242,competitor,abb,AL market (Yasamal)
40.374094,49.813858,competitor,abb,"AMEA, Fizika institutu"
40.377284,49.791020,competitor,abb,Park Yasamal
40.61687315702286,47.15165656286499,competitor,abb,Yevlax Oba market
40.50497091110216,47.093229336233456,competitor,abb,Oba market (Malbinəsi)
40.613915,47.1460189,competitor,abb,Neptun supermarket
40.7138616,47.218187,competitor,abb,OBA market (Xaldan qəs.)
40.60600865876309,47.14564856945071,competitor,abb,OBA market (Yevlax)
40.63159542229465,46.98894310886099,competitor,abb,Aran Dalğa market
40.725308,48.405816,competitor,abb,Zaqatala mall
41.56996536254883,46.70876693725586,competitor,abb,ATS-in yaxınlığında Mağaza
41.6246727,46.6375315,competitor,abb,Qəbələ market
41.494300842285156,46.62809371948242,competitor,abb,Əliabad Bazarı
41.60919600703392,46.635125665649575,competitor,abb,Tala kəndi (Zaqatala)
41.63183691649234,46.65072977318418,competitor,abb,Zift supermarket (Zaqatala)
41.640348,46.651785,competitor,abb,Qala Olimpiya Kompleksi
41.5511772,46.4214668,competitor,abb,Danaçı kəndi (market)
41.53632705029023,46.701540684114654,competitor,abb,Çobankol kəndi
41.61407356903221,46.655470100269326,competitor,abb,Selin market (Zaqatala)
41.629904,46.644284,competitor,abb,Bazarstore (Zaqatala)
39.17919052219719,46.760592871258176,competitor,abb,Zəngilan (Ağalı k.)
40.22839913427785,47.70688333090458,competitor,abb,OBA market (Zərdab)
40.211953133379446,47.70898468248254,competitor,abb,"""Sonti"" market (Zərdab)"
40.22375438793309,47.576661530982406,competitor,abb,Zərdab 3 yol ayrıcı
40.12119543824745,47.86790454379405,competitor,abb,Aşağı Seyidlər kəndi
40.388302,49.82439,competitor,abb,Abşeron filialı (İzmir küçəsi)
40.41774427731688,49.90836859799611,competitor,abb,ASAN 5 filialı
40.3807175,49.8634624,competitor,abb,Azəriqaz filialı
40.425592,49.842635,competitor,abb,Binəqədi filialı
40.407242,49.811661,competitor,abb,Əcəmi filialı
40.384804,49.954494,competitor,abb,Əhmədli filialı
40.4129563,49.853611,competitor,abb,KOBİA filialı
40.369698,49.839626,competitor,abb,Mərkəzi filialı
40.372036,49.836678,competitor,abb,Müştəri xidməti departamenti
40.402200,49.873241,competitor,abb,Nərimanov filialı
40.377341,49.849451,competitor,abb,Nəsimi filialı
40.419455,49.933968,competitor,abb,Nizami filialı
40.3488352,49.8360056,competitor,abb,Qaradağ filialı
40.424931,49.959164,competitor,abb,Sabunçu filialı
40.389328,49.882416,competitor,abb,Sənaye filialı
40.397069,49.801439,competitor,abb,Şərifzadə filialı
40.430256,49.986922,competitor,abb,Suraxanı filialı
40.37400208633886,49.819266096084036,competitor,abb,Yasamal filialı
40.580589,49.681780,competitor,abb,3 saylı Sumqayıt filialı
40.051826247641216,47.444376604761956,competitor,abb,Ağcabədi filialı
40.644077,47.475788,competitor,abb,Ağdaş filialı
41.111888,45.440918,competitor,abb,Ağstafa filialı
40.567467,48.402222,competitor,abb,Ağsu filialı
41.719612,46.415669,competitor,abb,Balakən filialı
40.372044,47.126541,competitor,abb,Bərdə filialı
39.455777,48.545321,competitor,abb,Biləsuvar filialı
39.2122248,48.504708,competitor,abb,Cəlilabad filialı
40.524254,46.080952,competitor,abb,Daşkəsən filialı
40.525566,45.812313,competitor,abb,Gədəbəy filialı
40.675659,46.358486,competitor,abb,Gəncə filialı
40.680520,46.358100,competitor,abb,Gəncə Mərkəz filialı
40.403295,49.854145,competitor,abb,Gənclik filialı
40.605344,46.785962,competitor,abb,Goranboy filialı
40.649455,47.748114,competitor,abb,Göyçay filialı
40.5884722,46.3177778,competitor,abb,Göygöl filialı
40.031333,48.935333,competitor,abb,Hacıqabul filialı
40.465714,50.052151,competitor,abb,Hava limanı filialı
39.844395,47.986908,competitor,abb,İmişli filialı
40.787579,48.146694,competitor,abb,İsmayıllı filialı
40.343666,48.157539,competitor,abb,Kürdəmir filialı
38.753909,48.855414,competitor,abb,Lənkəran filialı
39.035248,48.668652,competitor,abb,Masallı filialı
40.487396,50.161011,competitor,abb,Mərdəkan filialı
40.76657397925422,47.058333177765526,competitor,abb,Mingəçevir filialı
39.21255,45.40795,competitor,abb,Naxçıvan filialı
41.075140,47.466616,competitor,abb,Oğuz filialı
40.455276,50.337276,competitor,abb,Pirallahı filialı
41.419292,46.921598,competitor,abb,Qax filialı
41.089900,45.3589100,competitor,abb,Qazax filialı
40.977936,47.846554,competitor,abb,Qəbələ filialı
41.363458,48.522153,competitor,abb,Quba filialı
39.937862321630135,48.36398497221913,competitor,abb,Saatlı filialı
41.212433,48.986492,competitor,abb,Şabran filialı
39.605377,48.985332,competitor,abb,Salyan filialı
40.63248586370292,48.63315617164039,competitor,abb,Şamaxı filialı
40.757492,46.399326,competitor,abb,Samux filialı
40.3740776,49.84202332,competitor,abb,Səbail filialı
41.205125,47.177632,competitor,abb,Şəki filialı
40.830095,46.020204,competitor,abb,Şəmkir filialı
39.934551,48.917912,competitor,abb,Şirvan filialı
41.075969,49.113477,competitor,abb,Siyəzən filialı
40.593892,49.678295,competitor,abb,Sumqayıt filialı
40.339886,46.932442,competitor,abb,Tərtər filialı
40.992667,45.616973,competitor,abb,Tovuz filialı
40.509697,47.65937,competitor,abb,Ucar filialı
41.471161,48.809338,competitor,abb,Xaçmaz filialı
39.81634804205688,46.75202130372225,competitor,abb,Xankəndi filialı
40.37918,49.87869,competitor,abb,Xətai filialı
40.4486008,49.7500943,competitor,abb,Xırdalan filialı
40.570368,49.690033,competitor,abb,Yeni Sumqayıt filialı
40.613266,47.14846,competitor,abb,Yevlax filialı
41.6288793,46.6413267,competitor,abb,Zaqatala filialı
40.2183625883016,47.70675685132114,competitor,abb,Zərdab filialı
41.43002805615341,46.958456888706884,competitor,abb,ABB-nin Qax filialı
40.64464509611075,47.47541481995137,competitor,abb,ABB-nin Ağdaş filialı 24/7 sahə - 1
40.64464509611075,47.47541481995137,competitor,abb,ABB-nin Ağdaş filialı 24/7 sahə - 2
40.58848930299931,46.31781200496325,competitor,abb,ABB-nin Göygöl filialı
39.954087203639475,48.94529953145344,competitor,abb,ABB-nin Şirvan filialı 24/7 sahə
40.031326,48.935543,competitor,abb,ABB-nin Hacıqabul filialı
41.089988,45.358857,competitor,abb,ABB-nin Qazax filialı - 2
40.981172,47.848992,competitor,abb,ABB Qəbələ filialı-2
40.42544705254884,49.99476587212442,competitor,abb,Araz market - Buzovna
40.385005,49.971756,competitor,abb,Araz market (Köhnə Günəşli)
40.360714,50.079949,competitor,abb,Araz market (Hövsan)
40.43012600743132,49.98685000312504,competitor,abb,ABB Suraxanı filialı 24/7 - 1
40.43012600743132,49.98685000312504,competitor,abb,ABB Suraxanı filialı 24/7 - 2
40.785185755946756,48.148832691677796,competitor,abb,ABB-nin İsmayıllı filialı  - 2
41.362896864278156,48.52212912027352,competitor,abb,ABB-nin Quba filialı - 1
41.362896864278156,48.52212912027352,competitor,abb,ABB-nin Quba filialı - 2
40.017367,48.476843,competitor,abb,Sabiarbad ASAN xidmət
39.638275,46.552526,competitor,abb,Laçın - Mərkəz
40.495197,49.759883,competitor,abb,Bazarstore (Masazır)
40.490859057376916,49.75487170906055,competitor,abb,Bravo (Masazır)
40.478819,49.753169,competitor,abb,Araz market (Masazır)
40.99266228364854,45.617062286730686,competitor,abb,ABB-nin Tovuz filialı
40.9981450,45.657059,competitor,abb,Tovuz - ASAN Xidmət
41.2115994,48.998091,competitor,abb,ABB-nin Şabran filialı
41.207591,48.801868,competitor,abb,Şabran yaradıcılıq-istirahət kompleksi
40.03171872968408,47.45169725321251,competitor,abb,Bolmart (Ağcabədi)
40.505089324416296,47.658295254137954,competitor,abb,ABB-nin Ucar filialı - 2
38.75796435845418,48.85431794806813,competitor,abb,Qala Xiyabani (Lənkəran)
39.035048,48.669059,competitor,abb,ABB - Masallı filialı
41.457071638868086,48.794027349410825,competitor,abb,ABB-nin Xaçmaz filialı - 1
41.457071638868086,48.794027349410825,competitor,abb,ABB-nin Xaçmaz filialı - 2
39.8163286210201,46.752053354036015,competitor,abb,ABB-nin Xankəndi filialı
40.762245,47.067538,competitor,abb,ABB-nin Mingəçevir filialı - 1
40.762245,47.067538,competitor,abb,ABB-nin Mingəçevir filialı - 2
41.112116,45.440646,competitor,abb,ABB-nin Ağstafa filialı
40.412404,49.954474,competitor,abb,Bravo (Bakıxanov 7/24)
40.41846821963565,49.96585292301883,competitor,abb,Bolmart (Bakıxanov)
40.424814,49.959092,competitor,abb,ABB-nin Sabunçu filialı
40.424814,49.959092,competitor,abb,ABB-nin Sabunçu filialı
40.446807,49.934971,competitor,abb,Bolmart (Zabrat)
40.424814,49.959092,competitor,abb,ABB Sabunçu filialı
40.472677,49.947573,competitor,abb,Madeyra mebel (Zabrat)
40.436312,49.930275,competitor,abb,Socar YDM (Sabunçu dairəsi)
40.439081,49.939152,competitor,abb,Socar (Sabunçu dairəsi)
40.42101975299624,49.969111063659135,competitor,abb,Bakıxanov - ASAN 4
40.567539,48.399806,competitor,abb,ABB-nin Ağsu filialı
39.22071925365035,45.41228232087287,competitor,abb,Naxçıvan Olimpiya mərkəzi
39.205957,45.424426,competitor,abb,"""Cahan"" T/M Naxçıvan"
39.21244829659379,45.406518085929584,competitor,abb,Mərkəzi poçt (Naxçıvan)
39.19482854418544,45.42999469590923,competitor,abb,BANU (Naxçıvan)
39.19885164397089,45.416940881770394,competitor,abb,Saat meydan (Naxçıvan)
39.210344,45.409007,competitor,abb,"""Tebriz"" mehmanxanası (Naxçıvan)"
39.191190,45.447486,competitor,abb,Hava limanı
39.21261274583827,45.4079758807977,competitor,abb,ABB-nin Naxçıvan filialı - 1
39.21261274583827,45.4079758807977,competitor,abb,ABB-nin Naxçıvan filialı - 2
39.22111263375236,45.40476702853944,competitor,abb,Naxçıvan - ASAN
40.387924,49.866940,competitor,abb,Bazarstore (Xətai)
40.3791493,49.8786948,competitor,abb,ABB-nin Xətai fililalı
40.372913,49.944703,competitor,abb,Megastore (Əhmədli)
40.3848192,49.863234,competitor,abb,Azəriqaz QSC - Y.Səfərov k.
40.374662,49.944575,competitor,abb,Bravo (Əhmədli)
40.387791,49.873824,competitor,abb,Bravo (Babək prospekti)
40.388477,49.877889,competitor,abb,ABB-nin Sənaye filialı
40.378991784669445,49.87547653319742,competitor,abb,Bravo Azure
40.370930,49.953829,competitor,abb,H.Aslanov M. çıxışı
40.394847,49.958643,competitor,abb,Rahat market (Sərhədçi)
40.363397,49.960477,competitor,abb,Araz market (Xəzər dairəsi)
40.386636,49.964723,competitor,abb,Bizim market (Sarayev)
40.355464,49.953263,competitor,abb,Socar YDM (Zığ)
40.392745,49.914431,competitor,abb,Socar YDM N14 (Babək pr.)
40.36808282056749,49.93875399331564,competitor,abb,Bazarstore (Nargilə dairəsi)
40.379213,49.879039,competitor,abb,ASAN xidmət - Amay
40.417581,49.908305,competitor,abb,ASAN 5
40.34260236400333,49.96914311431556,competitor,abb,Oba market (P.Həşimov küç.)
40.380932,49.863842,competitor,abb,Mərkəzi Neftçilər Xəstəxanası
40.378209,49.955839,competitor,abb,ASAN-6 - Heydər Əliyev parkının yaxınlığı
40.383320570901375,49.890207214942464,competitor,abb,Neptun supermarket (Ağ şəhər )
39.597176,48.9853172,competitor,abb,ABB-nin Salyan filialı
40.412773,49.853899,competitor,abb,KOB evi (Bünyadov pr.)
40.403239,49.854116,competitor,abb,ABB-nin Gənclik filialı
40.428001,49.897939,competitor,abb,Hyundai (Dərnəgül yolu)
40.402387,49.835848,competitor,abb,Bazarstore (Azadlıq pros.)
40.39725330793839,49.86978217722192,competitor,abb,Tam store (Nərimanov)
40.393887,49.862502,competitor,abb,Grandmart (Nərimanov)
40.399636,49.850539,competitor,abb,Bazarstore (Gənclik)
40.389171583025764,49.85744185513864,competitor,abb,Araz market (Qarabağ küç.)
40.412492,49.845384,competitor,abb,Bazarstore (Ayna Sultanova)
40.411042,49.861069,competitor,abb,Araz market (Əhməd Rəcəbli)
40.403353,49.854161,competitor,abb,ABB-nin Gənclik filialı
40.411036,49.857585,competitor,abb,Bolmart  (Nərimanov)
40.402200,49.873241,competitor,abb,ABB-nin Nərimanov filialı
40.402200,49.873241,competitor,abb,ABB-nin Nərimanov filialı
40.400268,49.852213,competitor,abb,Gənclik Mall
40.3990627,49.8350717,competitor,abb,ASAN 1 (Akademik H. Əliyev 36)
40.402058,49.869731,competitor,abb,Respublika Uşaq Stomatoloji mərkəzi - 1
40.402058,49.869731,competitor,abb,Respublika Uşaq Stomatoloji mərkəzi - 2
40.402058,49.869731,competitor,abb,Respublika Uşaq Stomatoloji mərkəzi - 3
40.374042,47.123039,competitor,abb,ABB-nin Bərdə filialı
40.394167,47.124167,competitor,abb,Bərdə ASAN xidmət
40.632682,48.633041,competitor,abb,ABB-nin Şamaxı filialı
40.613752,48.665060,competitor,abb,Şamaxı - ASAN xidmət
39.4557586,48.5452351,competitor,abb,ABB-nin Biləsuvar filialı
40.76619506836712,46.40602189588147,competitor,abb,ABB-nin Samux filialı - 2
40.371540,49.8366995,competitor,abb,Kitab evi-3
40.348750,49.835861,competitor,abb,ABB-nin Qaradağ filialı
40.371540,49.8366995,competitor,abb,Kitab evi-4
40.371540,49.8366995,competitor,abb,Kitab evi-5
40.366028,49.831822,competitor,abb,İçərişəhər metro st.
40.338415,49.807376,competitor,abb,Araz market (Badamdar)
40.329151,49.818423,competitor,abb,"Bravo (Bayıl, 20ci sahə)"
40.374854,49.843493,competitor,abb,Az. Kinematoqraflar birliyi
40.374048,49.846533,competitor,abb,Azərbaycan Milli kitabxanası
40.342512,49.839394,competitor,abb,Bazarstore (Bayıl)
40.374027,49.842046,competitor,abb,ABB-nin Səbail filialı-1
40.374027,49.842046,competitor,abb,ABB-nin Səbail filialı-2
40.358210,49.836562,competitor,abb,Dəniz Mall
40.35106235643215,49.83270188361338,competitor,abb,Bravo SabahWalk
40.370972,49.849891,competitor,abb,Park Bulvar yeraltı dayanacaq
40.369065726869565,49.82765619608971,competitor,abb,Bazarstore (İçərişəhər)
40.368678,49.840181,competitor,abb,ABB Mərkəzi filialı
40.399068,49.830821,competitor,abb,Əqli Mülkiyyət agentliyi
40.3773331,49.8496991,competitor,abb,ABB-nin Nəsimi filialı
40.380264,49.849622,competitor,abb,ASAN Kommunal
40.401478,49.810843,competitor,abb,Bravo (20 Yanvar)
40.398077,49.813835,competitor,abb,Araz market (20 Yanvar)
40.395064,49.828103,competitor,abb,Neptun market (Əcəmi)
40.393696,49.794576,competitor,abb,Bazarstore (Yeni Yasamal)
40.383959,49.837863,competitor,abb,Bolmart (Göy Məscid)
40.38099925409084,49.84448618926151,competitor,abb,Oba market (Rəşid Behbudov küç.)
40.38508766296593,49.844492075089924,competitor,abb,Araz market (ABŞ səfirliyi)
40.37814582801456,49.846201001139846,competitor,abb,Neptun supermarket (28 m/s)
40.394587,49.834014,competitor,abb,Azərbaycan Tibb Universiteti
40.372273,49.836737,competitor,abb,ABB - Baş idarə
40.41179607841979,49.812358004930594,competitor,abb,Tam store - Yaşam residens
40.3773331,49.8496991,competitor,abb,ABB-nin Nəsimi filialı
40.379162,49.857386,competitor,abb,Beko mağazası (28 may)
40.407115,49.811858,competitor,abb,ABB-nin Əcəmi filialı
40.407115,49.811858,competitor,abb,ABB-nin Əcəmi filialı
40.371973,49.836047,competitor,abb,ABB Yeni Bina - MXD
40.379126,49.846945,competitor,abb,28 Mall  Ticarət mərkəzi - 1
40.375555,49.859117,competitor,abb,Port Baku - supermarket
40.377333,49.849699,competitor,abb,ABB-nin Nəsimi filialı - 1
40.377333,49.849699,competitor,abb,ABB-nin Nəsimi filialı - 2
40.37590642840482,49.85106933088325,competitor,abb,ABB-nin Landmark şöbəsi
40.379039,49.846813,competitor,abb,28 Mall  Ticarət mərkəzi - 2
40.393859446737,49.835175517010924,competitor,abb,Nəsimi rayonu İcra Hakimiyyəti
40.372273,49.836737,competitor,abb,ABB Baş İdarə (köhnə inzibati bina)
40.428844,49.852414,competitor,abb,Araz market (7-ci MKR Ankara REC)
40.418533,49.797843,competitor,abb,Bakı Beynəlxalq Avtovağzal Kompleksi
40.419644,49.846714,competitor,abb,Bravo (Dərnəgül şossesi 7/24 )
40.425370,49.842855,competitor,abb,ABB-nin Binəqədi filialı
40.447821,49.777402,competitor,abb,Neptun Hipermarket
40.429386,49.887397,competitor,abb,Baku Steel company
40.418589,49.847733,competitor,abb,AzərTAC İnformasiya agentliyi
40.425370,49.842855,competitor,abb,ABB Binəqədi filialı - 2
40.422045,49.798869,competitor,abb,Oba market (Biləcəri)
40.4410125182917,49.8082949899416,competitor,abb,Tam store (Biləcəri)
40.4648083,50.0516789,competitor,abb,H.Əliyev adına Beynəlxalq Hava Limanı
40.48622087765167,50.16677931047352,competitor,abb,Bravo supermarket (Şüvələn)
40.4875177,50.1591142,competitor,abb,ABB-nin Mərdəkan filialı
40.462700,50.049471,competitor,abb,Hava Limanı -  Parkinq
40.417602400305285,50.10794818339571,competitor,abb,Binə (Araz market - 4)
40.474420,50.109470,competitor,abb,Rahat market (Qala)
40.49036870664834,50.14838320090493,competitor,abb,RAHAT market
40.5916485582322,49.98583805577762,competitor,abb,Seabreeze hotel
40.510589599609375,50.13028335571289,competitor,abb,Everest market (Buzovna)
40.449762,50.088291,competitor,abb,Bazarstore (Binə qəs. 2)
40.4875177,50.1591142,competitor,abb,ABB-nin Mərdəkan filialı
40.464140,50.051627,competitor,abb,ABB-nin Hava Limanı şöbəsi
40.462700,50.049471,competitor,abb,Hava Limanı - Cənub terminal
40.464140,50.051627,competitor,abb,ABB-nin Hava limanı şöbəsi - Cənub (2) terminal
40.4911079,50.1542121,competitor,abb,Mərdəkan - 26 N-li Birləşmiş şəhər xəstəxanası
40.465292872023326,50.05242882157553,competitor,abb,H.Əliyev adına Beynəlxalq Hava Limanı Şimal (1) terminal 1-ci mərtəbə)
40.461190,49.727606,competitor,abb,Bazarstore (AAAF Park)
40.44917978916914,49.75045339667672,competitor,abb,ABB-nin Xırdalan filialı - 1
40.44917978916914,49.75045339667672,competitor,abb,ABB-nin Xırdalan filialı - 2
40.4557660,49.7413620,competitor,abb,Araz market (Xırdalan)
39.212265,48.505136 ,competitor,abb,ABB-nin Cəlilabad filialı
41.204913833665636,47.177686321754486,competitor,abb,ABB-nin Şəki filialı
41.1979108,47.1760139,competitor,abb,Şəki store
41.21002885793978,47.17874278018726,competitor,abb,Şəki ipək
40.385389,49.828897,competitor,abb,Caspian Plaza
40.38008133079799,49.8102364552804,competitor,abb,Bolmart (Elmlər)
40.37938415013105,49.83166047254999,competitor,abb,Oba market (Yasamal)
40.37831881925903,49.80484788477052,competitor,abb,Bravo (Yasamal)
40.388398,49.824065,competitor,abb,ABB Abşeron filialı
40.394306,49.806691,competitor,abb,"DSMF,Baş idarə"
40.397041,49.801378,competitor,abb,ABB - Şərifzadə filialı
40.378192,49.833945,competitor,abb,Avromart (Nizami Metro)
40.376566,49.796424,competitor,abb,Bazarstore (Yasamal)
40.400553,49.804752,competitor,abb,Milli Onkoloji mərkəz
40.383982,49.823015,competitor,abb,Araz market (Statistika)
40.39410703610893,49.79481143348264,competitor,abb,Bravo (Y/Yasamal)
40.3898188,49.8149438,competitor,abb,Yasamal Torpaq kom.
40.388584,49.802651,competitor,abb,Baku elektroniks inşaatçılar m/s
40.378810,49.830601,competitor,abb,Nizami mall
40.383234,49.825547,competitor,abb,Araz market (Yasamal) - 1
40.382067,49.804137,competitor,abb,ABB - Şərifzadə filialı (24/7)
40.383561,49.809991,competitor,abb,Grandmart (Almaz Plaza)
40.366844,49.816483,competitor,abb,Araz market (Space TV yanı)
40.361371,49.824619,competitor,abb,Mərkəzi Kliniki Xəstəxana
40.3875700,49.7875990,competitor,abb,Araz market (Yasamal) - 2
40.380324,49.817222,competitor,abb,Mərkəzi Gömrük Hospitalı
40.385901,49.808390,competitor,abb,Araz market (üç taclı bina)
40.385992,49.810802,competitor,abb,Bazarstore (Yasamal)
40.397041,49.801378,competitor,abb,ABB - Şərifzadə filialı (24/7)
40.398045,49.805642,competitor,abb,Nəsrəddin Tusi adına klinika
40.382067,49.804137,competitor,abb,Araz market (Şərifzadə)
40.368285,49.821202,competitor,abb,Grandmart supermarket (Yasamal)
40.37450472475061,49.81907753239535,competitor,abb,Yasamal filialı - 1
40.37450472475061,49.81907753239535,competitor,abb,ABB-nin Yasamal filialı
40.83009862611042,46.02020803764185,competitor,abb,ABB-nin Şəmkir filialı - 2
40.8533870,46.0313440,competitor,abb,Bravo (Şəmkir)
40.66762924194336,46.354103088378906,competitor,abb,ABB-nin Gəncə filialı - 1
40.68062261393868,46.35815581226856,competitor,abb,ABB-nin Gəncə Mərkəz filialı
40.66762924194336,46.354103088378906,competitor,abb,ABB-nin Gəncə filialı - 2
40.678947692703304,46.36589431940843,competitor,abb,Bazarstore
40.686900,46.379686,competitor,abb,Gold Əminə hipermarket
40.688570531303704,46.38513500918613,competitor,abb,ABB-nin Texnologiya şöbəsi
40.691684,46.367364,competitor,abb,Gəncə Asan Xidmət
40.738814,46.300235,competitor,abb,Gəncə Hava limanı
40.418569,49.913382,competitor,abb,Bravo (Koroğlu)
40.419056,49.933580,competitor,abb,ABB-nin Nizami filialı-2
40.419056,49.933580,competitor,abb,ABB-nin Nizami filialı-3
40.408286,49.958143,competitor,abb,Araz market (Nazlı Restoranı)
40.384846,49.954478,competitor,abb,ABB-nin Əhmədli filialı
40.417716,49.908717,competitor,abb,5 saylı ASAN Xidmət Mərkəzi
40.421200,49.941177,competitor,abb,Grandmart (Nizami)
40.384846,49.954478,competitor,abb,ABB-nin Əhmədli filialı 24/7 sahə - 1
40.384846,49.954478,competitor,abb,ABB-nin Əhmədli filialı 24/7 sahə - 2
40.398961,49.949841,competitor,abb,Grandmart (Xalqlar dostluğu dairəsi)
40.393696,49.931928,competitor,abb,Socar YDM
40.414391468526276,49.93938743215322,competitor,abb,Bolmart (Neftçilər)
40.40610092311918,49.94658573708201,competitor,abb,Tamstore - Neftçilər
41.075936,49.113667,competitor,abb,ABB-nin Siyəzən filialı - 1
41.075936,49.113667,competitor,abb,ABB-nin Siyəzən filialı - 2
40.5947946,47.1637953,competitor,abb,Yevlax KOB evi
40.613104,47.147941,competitor,abb,ABB-nin Yevlax filialı
40.613104,47.147941,competitor,abb,ABB-nin Yevlax filialı
40.597872,47.1576453,competitor,abb,Yevlax Mərkəzi Xəstəxana
40.455348,50.337000,competitor,abb,ABB-nin Pirallahı filialı
41.6289275,46.6414702,competitor,abb,ABB-nin Zaqatala filialı - 1
41.6289275,46.6414702,competitor,abb,ABB-nin Zaqatala filialı - 2
40.6054493,46.7859249,competitor,abb,ABB-nin Goranboy filialı
40.325977,49.741293,competitor,abb,Kingsmart 2 (Lökbatan)
40.321780,49.734585,competitor,abb,Kingsmart (Lökbatan)
40.322498,49.732766,competitor,abb,Bravo (Lökbatan qəs.)
40.21818508094658,47.7063076020076,competitor,abb,ABB-nin Zərdab filialı
40.651181,47.750256,competitor,abb,Bolluq market (Göyçay)
40.649423,47.748033,competitor,abb,ABB-nin Göyçay filialı
40.587334,49.664962,competitor,abb,Sumqayıt ASAN Xidmət Mərkəzi
40.57288624044854,49.70857303342756,competitor,abb,Corat - Qəsəbə nümayəndəliyi
40.570759,49.690221,competitor,abb,ABB-nin Yeni Sumqayıt filialı - 1
40.570759,49.690221,competitor,abb,ABB-nin Yeni Sumqayıt filialı - 2
40.58064757538158,49.681713022811685,competitor,abb,ABB-nin Sumqayıt-3 filialı
40.58064757538158,49.681713022811685,competitor,abb,ABB-nin Sumqayıt-3 filialı
40.575869,49.679852,competitor,abb,Bazarstore (Sumqayıt 2)
40.401852,49.847073,competitor,abb,ASAN 1 şöbəsi
40.379078,49.87925,competitor,abb,ASAN 2 şöbəsi
40.37915,49.80426,competitor,abb,ASAN 3 şöbəsi
40.37804523980371,49.955766016795835,competitor,abb,ASAN 6 şöbəsi
40.37641798548452,49.86187779749039,competitor,abb,BP AİOC şöbəsi
40.376015,49.850704,competitor,abb,Landmark şöbəsi
40.394485,47.12199,competitor,abb,Bərdə ASAN xidmət şöbəsi
40.688576,46.385214,competitor,abb,Gəncə - Texnologiya
40.69177,46.36730,competitor,abb,Gəncə ASAN xidmət şöbəsi
39.995365,48.477901,competitor,abb,Sabirabad ASAN xidmət şöbəsi
40.369698,49.839626,competitor,abb,Seyf - Mərkəzi
40.389328,49.882416,competitor,abb,Seyf - Sənaye
40.377377,49.85022,competitor,abb,Seyf - Nəsimi
40.374733,49.844112,competitor,abb,Seyf - Sumqayıt
40.374733,49.844112,competitor,abb,Seyf - Səbail
40.675659,46.358486,competitor,abb,Seyf - Gəncə
40.380028,49.8787,competitor,abb,Seyf - Xətai
40.372036,49.836678,competitor,abb,Seyf - MXD
40.424931,49.959164,competitor,abb,Seyf - Sabunçu
41.212433,48.986492,competitor,abb,Seyf - Şabran
41.361134,48.510929,competitor,abb,Seyf - Quba
41.205975,47.17392,competitor,abb,Seyf - Şəki
41.631355,46.639709,competitor,abb,Seyf - Zaqatala
40.769882,47.04895,competitor,abb,Seyf - Mingəçevir
40.660629,46.333196,competitor,abb,1 nömrəli Birləşmiş Uşaq Xəstəxanası
40.582840,49.672079,competitor,abb,1 nömrəli Doğum Evi
40.582817,49.672631,competitor,abb,1 nömrəli Şəhər Xəstəxanası
40.583375,49.673304,competitor,abb,1 nömrəli Şəhər Xəstəxanası
40.419648,49.940328,competitor,abb,1 nömrəli Uşaq Yoluxucu Xəstəxanası
40.447743,50.341450,competitor,abb,10 nömrəli Birləşmiş Şəhər Xəstəxanası
40.394702,49.918604,competitor,abb,11 nömrəli Birləşmiş Şəhər Xəstəxanası
40.431047,50.036846,competitor,abb,12 nömrəli Birləşmiş Şəhər Xəstəxanası
40.421000,49.994012,competitor,abb,13 nömrəli Birləşmiş Şəhər Xəstəxanası
40.527395,50.104497,competitor,abb,14 nömrəli Birləşmiş Şəhər Xəstəxanası
40.391546,49.972694,competitor,abb,15 nömrəli Birləşmiş Şəhər Xəstəxanası
40.378443,49.820720,competitor,abb,16 nömrəli Şəhər Poliklinikası
40.083094,49.409869,competitor,abb,17 nömrəli Birləşmiş Şəhər Xəstəxanası
40.412406,49.936850,competitor,abb,18 nömrəli Birləşmiş Şəhər Xəstəxanası
40.329648,49.729079,competitor,abb,19 nömrəli Birləşmiş Şəhər Xəstəxanası
40.423803,49.953430,competitor,abb,2 nömrəli Doğum Evi
40.423803,49.953430,competitor,abb,2 nömrəli Doğum Evi
40.423563,49.952943,competitor,abb,2 nömrəli Doğum Evi
40.382316,49.862847,competitor,abb,2 nömrəli Şəhər klinik Xəstəxanası
40.571022,49.733873,competitor,abb,2 nömrəli Şəhər Xəstəxanası
40.457074,49.987833,competitor,abb,21 nömrəli Birləşmiş Şəhər Xəstəxanası
40.387726,49.947155,competitor,abb,22 nömrəli Birləşmiş Şəhər xəstəxanası
40.222630,49.575708,competitor,abb,23 nömrəli Birləşmiş Şəhər Xəstəxanası
40.372673,49.975644,competitor,abb,24 nömrəli Birləşmiş Şəhər Xəstəxanası (keçmiş 31poliklinikası)
40.491137,50.154163,competitor,abb,26 nömrəli Birləşmiş Şəhər Xəstəxanası
40.561945,50.028300,competitor,abb,28 nömrəli Birləşmiş Şəhər Xəstəxanası
40.449690,50.089581,competitor,abb,29 nömrəli Birləşmiş Şəhər Xəstəxanası
40.410913,50.009834,competitor,abb,3 nömrəli Doğum Evi
40.442560,49.942438,competitor,abb,3 nömrəli Şəhər klinik Xəstəxanası
40.442570,49.942460,competitor,abb,3 nömrəli Şəhər klinik Xəstəxanası
40.442601,49.942443,competitor,abb,3 nömrəli Şəhər klinik Xəstəxanası
40.442598,49.942453,competitor,abb,3 nömrəli Şəhər klinik Xəstəxanası
40.665362,46.351931,competitor,abb,3 nömrəli Şəhər Poliklinikası
40.620319,49.559648,competitor,abb,3 nömrəli Şəhər Xəstəxanası
40.375448,49.858767,competitor,abb,3 nömrəli Uşaq Xəstəxanası
40.496920,50.194747,competitor,abb,31 nömrəli Birləşmiş Şəhər Xəstəxanası
40.396670,49.895039,competitor,abb,32 nömrəli Birləşmiş Şəhər Xəstəxanası
40.321200,49.735688,competitor,abb,4 nömrəli Birləşmiş Uşaq Xəstəxanası
40.322585,49.727134,competitor,abb,4 nömrəli Doğum Evi
40.605726,49.657873,competitor,abb,4 nömrəli Şəhər Xəstəxanası
40.343547,49.839141,competitor,abb,5 nömrəli Doğum Evi
40.403450,49.862233,competitor,abb,5 nömrəli Şəhər klinik Xəstəxanası
40.403341,49.862270,competitor,abb,5 nömrəli Şəhər klinik Xəstəxanası
40.403341,49.862270,competitor,abb,5 nömrəli Şəhər klinik Xəstəxanası
40.389774,49.840661,competitor,abb,5 nömrəli Şəhər Poliklinikası
40.426455,49.962045,competitor,abb,5 nömrəli Uşaq Yolxucu Xəstəxanası
40.397850,49.859218,competitor,abb,6 nömrəli Uşaq Klnik Xəstəxanası
40.537550,49.996168,competitor,abb,7 nömrəli Birləşmiş Şəhər Xəstəxanası
40.537562,49.996136,competitor,abb,7 nömrəli Birləşmiş Şəhər Xəstəxanası
40.414312,49.930657,competitor,abb,7 nömrəli Doğum Evi
40.392124,49.860172,competitor,abb,7 nömrəli Uşaq Yoluxucu Xəstəxanası
40.550781,49.995504,competitor,abb,8 nömrəli Birləşmiş Şəhər Xəstəxanası
40.427907,49.986354,competitor,abb,8 nömrəli Birləşmiş Uşaq Xəstəxanası (2014 ildən)
40.295291,49.659962,competitor,abb,9 nömrəli Birləşmiş Şəhər Xəstəxanası
40.459005,49.739665,competitor,abb,Abşeron Rayon Mərkəzi Xəstəxanası
40.157607,47.167415,competitor,abb,Ağdam Rayon Mərkəzi Xəstəxanası
40.647092,47.491600,competitor,abb,Ağdaş Rayon Mərkəzi Xəstəxanası
41.112000,45.439831,competitor,abb,Ağstafa Rayon Mərkəzi Xəstəxanası
40.403634,49.804400,competitor,abb,Ak. M.Ə.Mirqasımov adına Respublika Klinik Xəstəxanası
40.403634,49.804400,competitor,abb,Ak. M.Ə.Mirqasımov adına Respublika Klinik Xəstəxanası
40.403634,49.804400,competitor,abb,Ak. M.Ə.Mirqasımov adına Respublika Klinik Xəstəxanası
40.403634,49.804400,competitor,abb,Ak. M.Ə.Mirqasımov adına Respublika Klinik Xəstəxanası
40.403768,49.861705,competitor,abb,Akademik C.M.Abdullayev adına Elmi-Tədqiqat Kardiologiya İnstitutu
40.369439,49.833197,competitor,abb,Akademik Mirməmməd Cavadzadə adına Respublika Kliniki Uroloji Xəstəxanası
40.369439,49.833197,competitor,abb,Akademik Mirməmməd Cavadzadə adına Respublika Kliniki Uroloji Xəstəxanası
38.444716,48.877626,competitor,abb,Astara Rayon Mərkəzi Xəstəxanası
40.396972,49.841418,competitor,abb,B.Ə.Eyvazov adına Elmi-Tədqiqat Hematologiya və Transfuziologiya İnstitutu
40.396972,49.841418,competitor,abb,B.Ə.Eyvazov adına Elmi-Tədqiqat Hematologiya və Transfuziologiya İnstitutu
41.703307,46.426109,competitor,abb,Balakən Rayon Mərkəzi Xəstəxanası
39.776368,47.617542,competitor,abb,Beyləqan Rayon Mərkəzi Xəstəxanası
40.390202,47.132820,competitor,abb,Bərdə Müalicə Diaqnostika Mərkəzi
39.466298,48.543021,competitor,abb,Biləsuvar Rayon Mərkəzi Xəstəxanası
40.371731,47.130412,competitor,abb,Birləşmiş Uşaq Xəstəxanası
39.206489,48.526757,competitor,abb,Cəlilabad Müalicə Diaqnostika Mərkəzi
39.216439,48.502423,competitor,abb,Cəlilabad Rayon Mərkəzi Xəstəxanası
40.524317,46.079096,competitor,abb,Daşkəsən Rayon Mərkəzi Xəstəxanası
40.420313,49.946484,competitor,abb,Elmi-Tədqiqat Ağciyər Xəstəlikləri İnstitutu
40.420313,49.946484,competitor,abb,Elmi-Tədqiqat Ağciyər Xəstəlikləri İnstitutu
40.377718,49.819092,competitor,abb,Elmi-Tədqiqat Mamalıq və Ginekologiya İnstitutu
40.377718,49.819092,competitor,abb,Elmi-Tədqiqat Mamalıq və Ginekologiya İnstitutu
40.383892,49.852590,competitor,abb,Elmi-Tədqiqat Tibbi Bərpa İnstitutu
40.396922,49.839707,competitor,abb,Elmi-Tədqiqat Travmatologiya və Ortopediya İnstitutu
40.396922,49.839707,competitor,abb,Elmi-Tədqiqat Travmatologiya və Ortopediya İnstitutu
40.436729,49.843816,competitor,abb,Ə.D.Məlikov adına 6 nömrəli Birləşmiş Şəhər Xəstəxanası
40.436760,49.843494,competitor,abb,Ə.D.Məlikov adına 6 nömrəli Birləşmiş Şəhər Xəstəxanası
40.436760,49.843494,competitor,abb,Ə.D.Məlikov adına 6 nömrəli Birləşmiş Şəhər Xəstəxanası
39.526116,47.472789,competitor,abb,Füzuli Müalicə Diaqnostika Mərkəzi
39.451106,47.330362,competitor,abb,Füzuli Rayon Mərkəzi Xəstəxanası
40.578342,45.813172,competitor,abb,Gədəbəy Rayon Mərkəzi Xəstəxanası
40.598669,46.777407,competitor,abb,Goranboy Rayon Mərkəzi Xəstəxanası
 40.659904,47.751667,competitor,abb,Göyça rayon Mərkəzi Xəstəxanası
40.598211,46.328782,competitor,abb,Göygöl Rayon Mərkəzi Xəstəxanası
39.116789,48.601152,competitor,abb,Göytəpə şəhər xəstəxanası
40.031429,48.932229,competitor,abb,Hacıqabul Rayon Mərkəzi Xəstəxanası
39.861672,48.069774,competitor,abb,İmişli Rayon Mərkəzi Xəstəxanası
40.780922,48.159235,competitor,abb,İsmayıllı Rayon Mərkəzi Xəstəxanası
40.384550,49.826568,competitor,abb,K.Y.Fərəcova adına Elmi-Tədqiqat Pediatriya İnstitutu
40.394408,49.835035,competitor,abb,Kliniki Tibbi Mərkəzi
40.394408,49.835035,competitor,abb,Kliniki Tibbi Mərkəzi
40.394408,49.835035,competitor,abb,Kliniki Tibbi Mərkəzi
40.355613,48.159308,competitor,abb,Kürdəmir Rayon Mərkəzi Xəstəxanası
38.774630,48.417656,competitor,abb,Lerik Rayon Mərkəzi Xəstəxanası
38.782374,48.841254,competitor,abb,Lənkəran Müalicə Diaqnostika Mərkəzi
38.753682,48.849797,competitor,abb,Lənkəran Rayon Mərkəzi Xəstəxanası
40.395629,49.804557,competitor,abb,M.A.Topçubaşov adına Elmi Cərrahiyyə Mərkəzi
40.395629,49.804557,competitor,abb,M.A.Topçubaşov adına Elmi Cərrahiyyə Mərkəzi
39.026323,48.682835,competitor,abb,Masallı Rayon Mərkəzi Xəstəxanası
40.381092,49.863999,competitor,abb,Mərkəzi Neftcilər Xəstəxanası
40.381092,49.863999,competitor,abb,Mərkəzi Neftcilər Xəstəxanası
40.760358,47.048937,competitor,abb,Mingəçevir Rayon Mərkəzi Xəstəxanası
40.509340,46.816131,competitor,abb,Naftalan Şəhər Mərkəzi Xəstəxanası
39.374983,49.239415,competitor,abb,Neftçala Rayon Mərkəzi Xəstəxanası
41.059332,47.464521,competitor,abb,Oğuz Rayon Mərkəzi Xəstəxanası
40.393656,49.833317,competitor,abb,Qarayev adına 2 nömrəli Uşaq Xəstəxanası
40.393656,49.833317,competitor,abb,Qarayev adına 2 nömrəli Uşaq Xəstəxanası
41.416404,46.932229,competitor,abb,Qax Rayon Mərkəzi Xəstəxanası
41.092279,45.347997,competitor,abb,Qazax Müalicə Diaqnostika Mərkəzi
40.967384,47.840323,competitor,abb,Qəbələ Müalicə Diaqnostika Mərkəzi
40.967753,47.840789,competitor,abb,Qəbələ Rayon Mərkəzi Xəstəxanası
40.531216,48.937023,competitor,abb,Qobustan Rayon Mərkəzi Xəstəxanası
41.362346,48.568171,competitor,abb,Quba Müalicə Diaqnostika Mərkəzi
41.362531,48.511252,competitor,abb,Quba Regional Perinatal Mərkəzi
40.598494,49.666173,competitor,abb,Qubadlı Rayon Mərkəzi Xəstəxanası
40.372219,49.942488,competitor,abb,Respublika Neyrocərrahiyyə Xəstəxanası
40.372219,49.942488,competitor,abb,Respublika Neyrocərrahiyyə Xəstəxanası
40.380044,49.864927,competitor,abb,Respublika Perinatal Mərkəzi
40.401748,49.805812,competitor,abb,Respublika Uşaq Klinik Xəstəxanası
39.919824,48.352880,competitor,abb,Saatlı Rayon Mərkəzi Xəstəxanası
41.211212,48.994966,competitor,abb,Şabran Rayon Mərkəzi Xəstəxanası
39.578450,48.981458,competitor,abb,Salyan Rayon Mərkəzi Xəstəxanası
40.614871,48.664458,competitor,abb,Şamaxı Müalicə Diaqnostika Mərkəzi
40.638489,48.643880,competitor,abb,Şamaxı Rayon Mərkəzi Xəstəxanası
40.763640,46.402019,competitor,abb,Samux Rayon Mərkəzi Xəstəxanası
41.196057,47.175966,competitor,abb,Şəki Regional Perinatal Mərkəzi
40.830031,46.017904,competitor,abb,Şəmkir rayon Mərkəzi Xəstəxanası
39.967486,48.949797,competitor,abb,Şirvan Müalicə Diaqnostika Mərkəzi
39.951870,48.936824,competitor,abb,Şirvan Şəhər Mərkəzi Xəstəxanası
41.077334,49.114171,competitor,abb,Siyəzən Müalicə-Diaqnostika Mərkəzi
41.080187,49.111566,competitor,abb,Siyəzən Rayon Mərkəzi Poliklinikası
40.598607,49.665652,competitor,abb,Sumqayıt Şəhər Təcili Tibbi Yardım Xəstəxanası
40.600107,49.666846,competitor,abb,Sumqayıt Şəhər Uşaq Xəstəxanası
40.600048,49.666681,competitor,abb,Sumqayıt Şəhər Uşaq Xəstəxanası
40.394047,49.803799,competitor,abb,Şuşa Rayon Mərkəzi Xəstəxanası
40.402011,49.862103,competitor,abb,Talasemiya merkezi
40.338164,46.926285,competitor,abb,Tərtər Rayon Mərkəzi Xəstəxanası
40.989809,45.609014,competitor,abb,Tovuz Rayon Mərkəzi Xəstəxanası
40.511356,47.664866,competitor,abb,Ucar Rayon Mərkəzi Xəstəxanası
40.382334,49.820463,competitor,abb,Uşaq Nevroloji Xəstəxanası
41.461772,48.798612,competitor,abb,Xaçmaz Rayon Mərkəzi Xəstəxanası
40.911784,49.072104,competitor,abb,Xızı Rayon Mərkəzi Xəstəxanası
40.469228,49.628294,competitor,express,Musviqabad Postu DYP
40.438587,49.77644,competitor,express,Ekologiya Postu DYP
40.501562,49.856133,competitor,express,BolMart Mehdiabad
40.450836,49.76495,competitor,express,Azer City super market
0.0,0.0,competitor,express,Spar market Fatmayi
40.475238,49.753099,competitor,express,Araz supermarket 2 (Masazir)
40.458,49.75621,competitor,express,Araz supermarket (Masazir)
40.481342,49.755828,competitor,express,Shok market
40.49627,49.85587,competitor,express,Araz Mehdiabad
40.49449,49.85568,competitor,express,Rahat Market
40.486164,49.838354,competitor,express,Shok market
40.469921,49.62685,competitor,express,Rahat Market
40.5232638,49.6875601,competitor,express,Araz supermarket (Saray)
40.522817,49.68794,competitor,express,Saray Postu DYP
40.522221,49.68882,competitor,express,BolMart Market
40.445847,49.773465,competitor,express,BDYPİ Qeydiyyat-İmtahan İdarəsi 1
40.441141,49.748095,competitor,express,Bazarstore
40.449971,49.745987,competitor,express,Elit Optimal Xırdalan
40.454632,49.745358,competitor,express,Megastore supermarket
40.049747,47.451687,competitor,express,Agcabedi rayonu DYP sobesi
40.044053,47.447172,competitor,express,Bazarstore Ağcabədi
40.050891,47.172676,competitor,express,Alsu Mall
40.052532,47.441929,competitor,express,Neptun supermarket
40.158224,47.160699,competitor,express,Agdam market
40.163065,47.156007,competitor,express,Brend Store
40.124347,47.103405,competitor,express,Agdam rayon DYP sobesi
40.647124,47.472202,competitor,express,Agdas seheri DYP sobesi
41.111736,45.441493,competitor,express,Agstafa seheri DYP sobesi
40.571915,48.388222,competitor,express,Agsu seheri DYP sobesi
40.57795,48.375915,competitor,express,Ağsu Regional Dövlət Miqrasiya Xidməti İdarəsi
40.567185,48.393206,competitor,express,Elit Optimal  Ağsu
40.567203,48.391584,competitor,express,Pasha Sigorta
0.0,0.0,competitor,express,Anbar 1 (Yığım)
0.0,0.0,competitor,express,Anbar 15 ( Yığım)
0.0,0.0,competitor,express,Anbar 18 (Yığım)
0.0,0.0,competitor,express,Anbar 12 (Yığım)
0.0,0.0,competitor,express,Anbar 11 (Yığım)
0.0,0.0,competitor,express,Anbar 9 (Yığım)
0.0,0.0,competitor,express,Anbar 16 (Yığım)
0.0,0.0,competitor,express,Anbar 2 (Yığım)
38.44787,48.874294,competitor,express,Astara seheri DYP sobesi
40.396671,49.838276,competitor,express,Nesimi rayon DYP sobesi
40.413616,49.929211,competitor,express,Nizami rayon DYP sobesi
40.145455,49.45186,competitor,express,Qaradag Postu DYP
40.418669,50.007289,competitor,express,Suraxani rayon DYP sobesi
40.470859,50.11599,competitor,express,Xezer rayon DYP sobesi
40.379915,49.848715,competitor,express,28 May M/S
40.40984,49.84633,competitor,express,Araz supermarket (Avesta)
40.411165,49.814241,competitor,express,Bakcell Memar Acemi
40.398228,49.816482,competitor,express,Araz supermarket
40.4272889,49.8446867,competitor,express,Rahat market
40.42558,49.84391,competitor,express,Rahat Market
40.41901,49.81121,competitor,express,Araz supermarket
40.4256174,49.8187465,competitor,express,Rahat market
40.41435,49.80495,competitor,express,SafaStore Market
40.3544835,49.8169719,competitor,express,BolMart 3 (Oxford)
40.392731,49.816168,competitor,express,Araz supermarket 1 (Lider AS)
40.41859,49.85127,competitor,express,Elit Market
40.40331,49.87237,competitor,express,Rahat market MetroPark
40.4013,49.87625,competitor,express,Xezer Market
40.406466,49.869461,competitor,express,Vergi X/M
40.3968202,49.8785851,competitor,express,Araz supermarket Nerimanov 1
40.38007,49.81097,competitor,express,Araz supermarket
40.381166,49.831255,competitor,express,Araz supermarket (Kömürcü)
40.40147,49.83984,competitor,express,Araz supermarket
40.40749,49.81132,competitor,express,Neptun Market 5
40.42088,49.99714,competitor,express,Bazarstore Suraxani
40.398228,49.816482,competitor,express,BolMart
40.418072,49.840385,competitor,express,Baki Regional Dovlet Miqrasiya Xidmeti Idaresi
40.403229,49.850918,competitor,express,Shamkir Market
40.405197,49.849064,competitor,express,Expressbank MXD filiali 24/7
0.0,0.0,competitor,express,Expressbank MXD filiali 24/7
40.570395,50.043632,competitor,express,Kanan market
40.38792,49.866905,competitor,express,Bazarstore Xetai
40.39426,49.95337,competitor,express,Neptun Market 6
40.390552,49.903118,competitor,express,Shassi
40.3882857,49.870981,competitor,express,Araz supermarket Xetai
40.34396,49.81001,competitor,express,Bazarstore Badamdar
40.35543,49.79752,competitor,express,Baki seher BDYPI
40.355242,49.797626,competitor,express,Baki seher BDYPI
40.41864,49.83858,competitor,express,Gizil Gul market (Neptun)
40.376187,49.961719,competitor,express,Xetai rayon DYP shobesi
40.415581,49.8176,competitor,express,Ruzi Market
40.418818,49.935058,competitor,express,Bazarstore Q.Qarayev
40.4094713,49.9559437,competitor,express,Universal market
40.375344,49.812386,competitor,express,Expressbank Elmlər filialı 24/7
40.516768,49.938666,competitor,express,Neptun market Kurdexani
40.431553,49.954705,competitor,express,Rahat market
40.41777,49.96429,competitor,express,Bazarstore Bakixanov
40.424131,49.960196,competitor,express,Bazarstore (Makromart)
40.4675391,49.8420873,competitor,express,Rahat market
40.43181,49.80854,competitor,express,Rahat Market
40.418459,49.84444,competitor,express,Shassi
40.412601,49.84519,competitor,express,Bazarstore (Makromart)
40.421457,49.799264,competitor,express,Shassi
40.34079,49.779587,competitor,express,Expressbank Naxçıvani filialı 2
40.417462,49.848325,competitor,express,Darnagul market
40.4633134,49.8296123,competitor,express,Qiz Qalasi market 2
40.426606,49.851359,competitor,express,Araz supermarket (7 MKR)
40.414128,49.839067,competitor,express,Endi market
40.419709,49.810723,competitor,express,Kristal Abşeron Binəqədi
40.415928,49.838921,competitor,express,Bazarstore
40.41457,49.845211,competitor,express,Baki Regional Migrasiya İdaresi
40.448173,49.809368,competitor,express,A.Mart market
40.458541,49.841018,competitor,express,Istanbul market
40.47282,49.835644,competitor,express,Nicat market
40.456536,49.842752,competitor,express,Tayqa market
40.414631,49.843514,competitor,express,Megastore supermarket
40.424011,49.826293,competitor,express,№10 Sizin market
40.426354,49.857536,competitor,express,Bineqedi Rayon Mehkemesi
40.425873,49.852989,competitor,express,DIM-Elektron İmtahan Korpusu
40.439039,49.751511,competitor,express,Nur market
40.418483,49.797907,competitor,express,Bakı Beynəlxalq Avtovağzal Kompleksi
40.414675,49.768304,competitor,express,Rahat supermarket Xocasen
40.415801,49.854562,competitor,express,Sürücü Təlim Mərkəzi
40.415833,49.855085,competitor,express,Sürücü Təlim Mərkəzi
40.415801,49.854562,competitor,express,Sürücü Təlim Mərkəzi
40.45014,50.08782,competitor,express,Araz supermarket
40.367096,49.829132,competitor,express,Spar Axundov
40.37604,49.842824,competitor,express,Expressbank Nesimi filiali 24/7
40.36524,49.819985,competitor,express,Sahil Metro kecid
40.507277,50.106063,competitor,express,Araz supermarket 2 (Buzovna)
40.52742,50.09805,competitor,express,Favorit Market
40.39535,49.82805,competitor,express,Neptun Market 7
40.415451,49.828831,competitor,express,Araz supermarket Vorovskiy
40.416033,49.849562,competitor,express,Tayqa market
40.3937865,49.7950441,competitor,express,Bazarstore Yasamal
40.40991,49.95562,competitor,express,Bazarstore 8 km
40.400492,49.851008,competitor,express,Genclik M/S
40.39977,49.85014,competitor,express,Bazarstore Genclik
40.368153,49.964559,competitor,express,Araz supermarket
40.39776,49.82955,competitor,express,Rahat Market
40.39777,49.86903,competitor,express,Neptun 9 market
40.400012,49.865241,competitor,express,Araz supermarket Narimanov 3
40.400223,49.8378,competitor,express,Nerimanov rayon DYP sobesi
40.3926777,49.8061825,competitor,express,VIP Store
40.402753,49.807086,competitor,express,Expressbank Yasamal
40.366356,49.831555,competitor,express,Icheri sheher M/S
40.394287,49.813343,competitor,express,Yasamal rayon DYP sobesi
40.368497,49.820971,competitor,express,Grandmart
40.4092,49.86979,competitor,express,Rahat Market
40.35947,49.96661,competitor,express,Dostum market
40.420101,49.918816,competitor,express,Koroglu M/S
40.54745,49.91118,competitor,express,iL market Kurdaxani
40.303116,49.760205,competitor,express,Araz supermarket (Bine Topdan)
40.3095192,49.7450173,competitor,express,Bazarstore (Aqrovest)
40.30478,49.748451,competitor,express,Expressbank Qaradag filiali
40.32653,49.72674,competitor,express,Elmar Market
40.443813,49.844711,competitor,express,Bineqedi rayon DYP sobesi
40.52613,50.01716,competitor,express,Abseron Market
40.410079,49.813595,competitor,express,NAR Memar Əcəmi
40.4225588,49.8352899,competitor,express,Rahat market
40.51153,49.94165,competitor,express,Araz supermarket (Mehemmedi )
40.37075,49.950442,competitor,express,Rahat market
40.43615,49.84476,competitor,express,Araz supermarket
40.370438,49.810192,competitor,express,Shassi
40.385969,49.954315,competitor,express,Expressbank Ahmedli filiali
40.385339,49.953475,competitor,express,Ahmadli M/S
40.38603,49.95476,competitor,express,Expressbank Ahmedli filiali 24/7
40.4211268,49.8145708,competitor,express,BolMart 1 Millenium
40.396811,49.84226,competitor,express,Bazarstore Nesimi
40.39387,49.84178,competitor,express,Rahat market
40.382768,49.809157,competitor,express,Araz supermarket Yasamal
40.411036,49.86708,competitor,express,Mehelle Market
40.357741,49.834029,competitor,express,Darya market
40.404271,49.841603,competitor,express,Okean market
40.400185,49.88242,competitor,express,Kosmos market
40.397385,49.877903,competitor,express,Bazarstore Montin
40.408756,49.867332,competitor,express,Buta market
40.400439,49.841126,competitor,express,Rahat market
40.400332,49.848903,competitor,express,Market
40.40855,49.862236,competitor,express,INTEGRAL beyond compare
40.415604,49.857361,competitor,express,Cinar Park Biznes Merkezi
40.406296,49.87328,competitor,express,Rahat market
40.395187,49.871052,competitor,express,Montin market
40.414814,49.853134,competitor,express,STEP IT Academy2
40.39327,49.882457,competitor,express,V - Design
40.409968,49.837631,competitor,express,Azərbaycan Kooperasiya Universiteti
40.40313,49.875507,competitor,express,Deniz market
40.404133,49.873417,competitor,express,Bakcell Nərimanov
40.385433,49.851236,competitor,express,BolMart
40.388191,49.857683,competitor,express,Nas Project BOKT
40.390104,49.858871,competitor,express,East Park yaşayış kompleksi
40.413734,49.850521,competitor,express,DIN Hospitali
40.413319,49.853509,competitor,express,KOBİA
40.406746,49.812824,competitor,express,Spar Market (3-cu mkr)
40.396811,49.839356,competitor,express,Bakı Sağlamlıq Mərkəzi /2-ci mərtəbə/
40.409716,49.814923,competitor,express,VTB Bank Əcəmi filialı
40.401157,49.822037,competitor,express,Rahat market
40.401132,49.822172,competitor,express,Rahat supermarket Papanin
40.380236,49.849743,competitor,express,Bakı Dəmiryol Vağzalı
40.409855,49.818845,competitor,express,Eser market
40.395985,49.843381,competitor,express,Spar market
40.378494,49.834133,competitor,express,AvroMart
40.381034,49.844456,competitor,express,Finex Kredit
40.39284,49.838812,competitor,express,Rahat Nesimi 1
40.396076,49.836998,competitor,express,Bazarstore
40.37321,49.96185,competitor,express,BolMart 2 (Tusi)
40.37113,49.84986,competitor,express,Bazarstore Park Bulvar
40.381107,49.863304,competitor,express,Port Bazar Market
40.367108,49.838866,competitor,express,Kukla teatri Kecid
40.33836,49.830482,competitor,express,Sabail rayon DYP sobesi
40.357663,49.833827,competitor,express,Pasa Sigorta
40.3957327,49.819664,competitor,express,Rahat market
40.373406,49.834692,competitor,express,MediClub hospital
40.382415,49.843723,competitor,express,"Bas pasport, qeydiyyat ve miqrasiya idaresi"
40.383412,49.879011,competitor,express,Kaspi Liseyi Ag sheher
40.381,49.845041,competitor,express,BolMart
40.390023,49.830158,competitor,express,STEP IT Academy Tbilisi
40.37743,49.85432,competitor,express,Grandmart
40.37342,49.84005,competitor,express,Oscar Market
40.415085,49.968344,competitor,express,Rahat supermarket
40.403931,49.959347,competitor,express,Megastore Xalqlar
40.399165,49.940066,competitor,express,Spar Market
40.415947,49.932004,competitor,express,Yaxin Sirab market
40.415296,49.926467,competitor,express,Kristal Abşeron Q.Qarayev
40.409339,49.943294,competitor,express,Rahat supermarket Neftçilər
40.399559,49.952656,competitor,express,Lacin T/M
40.397425,49.951995,competitor,express,Bazarstore X.Dostlugu
40.406108,49.947439,competitor,express,STEP IT Academy1
40.420704,49.926048,competitor,express,Lyuksmart market
40.3854,49.87573,competitor,express,Neptun Market 8
40.47417,50.10945,competitor,express,Rahat Market
40.324886,49.779452,competitor,express,Elit T/m
40.321957,49.734562,competitor,express,KingsMart Market
40.325486,49.741464,competitor,express,KingSmart
40.243935,47.801419,competitor,express,Qaradag market
40.329909,49.782996,competitor,express,Elit Optimal Qaradag
40.413225,49.940171,competitor,express,Rahat market
40.399609,49.95121,competitor,express,Lacin T/M 2
40.467057,49.8274064,competitor,express,Qiz Qalasi market 1
40.419753,49.92511,competitor,express,Ruslan 93 market 1
40.41955,49.92552,competitor,express,Araz supermarket 2
40.3989766,49.8601298,competitor,express,Grandmart
40.408946,49.941185,competitor,express,Expressbank Neftciler filiali
40.408946,49.941185,competitor,express,Expressbank Neftciler filiali  24/7
40.37089,49.95508,competitor,express,Neptun 4 market H.Aslanov
40.34049,49.807031,competitor,express,Endi market
40.336201,49.805553,competitor,express,Express market
40.344903,49.838455,competitor,express,Real market
40.342493,49.839473,competitor,express,Bazarstore Bayil
40.372464,49.845265,competitor,express,Bakcell Sahil
40.528401,49.99823,competitor,express,Baku Store
0.0,0.0,competitor,express,Spar supermarket
40.427357,49.939404,competitor,express,Grandmart
40.414743,49.968502,competitor,express,Araz-Fateh market
40.430848,49.954354,competitor,express,Sabunçu r-n Məhkəməsi
40.408445,49.969903,competitor,express,Kaspi Liseyi Bakixanov
40.429096,49.956768,competitor,express,Elit Optimal Bakıxanov
40.436577,49.958805,competitor,express,Rahat market	Bakixanov (Buta)
40.468591,49.935799,competitor,express,SOS MMC
40.337879,49.778126,competitor,express,Araz supermarket Savalan
40.540459,50.008877,competitor,express,Uğur market
40.523827,50.001509,competitor,express,Bereket market
40.533737,50.003853,competitor,express,Elit Optimal Maştağa
40.446761,49.935044,competitor,express,Bolmart Zabrat
40.47942,49.950539,competitor,express,Sabuncu rayon DYP sobesi
40.465641,49.944649,competitor,express,Rahat hipermarket
40.491835,49.953624,competitor,express,BolMart
40.36127,49.95602,competitor,express,VIP Market
40.22334,49.57658,competitor,express,Nariman Market
40.227,49.57601,competitor,express,Optimal Market
40.43249,49.78518,competitor,express,Rahat supermarket Ekologiya 2
40.3763,49.84151,competitor,express,Grandmart
40.38614,49.96076,competitor,express,Bazarstore Baki K/T
40.384371,49.803477,competitor,express,Sevimli Dad Market
40.3834437,49.8383331,competitor,express,BolMart 4 (Teze Bazar)
40.41339,49.94938,competitor,express,Araz supermarket 1 (Neftciler)
40.37751,49.81221,competitor,express,Araz supermarket Elmler
40.377578,49.843432,competitor,express,VTB Bank  28 May filialı
40.379856,49.866924,competitor,express,Araz supermarket Xatai 2
40.38064,49.87234,competitor,express,Yagmur Market
40.38022,49.84261,competitor,express,Grandmart
40.433076,49.983498,competitor,express,Bizim market Suraxani
40.393741,49.93752,competitor,express,Araz supermarket (Hovsan)
40.373183,50.112749,competitor,express,Araz-Hovsan supermarket
40.355617,49.971902,competitor,express,Araz supermarket Y.Guneshli
40.399743,49.976796,competitor,express,Bazarstore Qarachuxur
40.444927,50.00153,competitor,express,Nərmin store
40.39912,49.939778,competitor,express,Araz supermarket Ramana
40.384487,49.97905,competitor,express,BolMart Y/Günəşli
40.487292,50.167969,competitor,express,Polis Akademiyasi
40.373623,49.842629,competitor,express,PARK CENTER
40.375108,49.841,competitor,express,Spar (S.Vurgun)
40.378489,49.840023,competitor,express,World Business Center
40.39663,49.81514,competitor,express,Neptun Market 2
40.394482,49.819632,competitor,express,Chiraq Plaza
40.39778,49.81381,competitor,express,Araz supermarket (20 Yanvar)
40.3925,49.85779,competitor,express,Rahat market Su sonasi
40.38643,49.90605,competitor,express,Araz supermarket (UPD)
40.372705,49.944818,competitor,express,Megastore supermarket
40.378835,49.948194,competitor,express,Şusa market
40.353918,49.96256,competitor,express,Bizim market Gence pr.
40.381467,49.964396,competitor,express,Megastore supermarket
40.368818,49.972458,competitor,express,Megastore supermarket
40.385082,49.95409,competitor,express,NAR Ahmedli
40.390701,49.954198,competitor,express,“Elit Optimal” Xalqlar
40.397425,49.951995,competitor,express,Bazarstore Ukraina
40.371511,49.953608,competitor,express,Grandmart H.Aslanov
40.385071,49.870695,competitor,express,Kaspi International School
40.375696,49.919876,competitor,express,Gunesh market
40.371174,49.931146,competitor,express,Rahat supermarket Nobel
40.370036,49.947855,competitor,express,SAF Market
40.397087,49.952824,competitor,express,Xalqlar Dostlugu M/S
40.386087,49.956614,competitor,express,DOLU mağaza Əhmədli
40.386031,49.955821,competitor,express,Bizim market Sarayevo 2
40.386546,49.95416,competitor,express,Bakcell Əhmədli
40.392892,49.960948,competitor,express,Real-S super market
40.375962,49.964856,competitor,express,Dost Mart
40.381119,49.86895,competitor,express,Freshmart
40.384421,49.872246,competitor,express,DOLU mağaza Xətai
40.385349,49.868763,competitor,express,Araz supermarket Xətai
40.368488,49.938885,competitor,express,Bazarstore Nargile
40.394663,49.935469,competitor,express,Bizim market Sarayevo
40.36001,49.96977,competitor,express,Rahat Market
40.419568,50.106091,competitor,express,Ocaq market
40.423013,50.103787,competitor,express,Rahat supermarket Binə
40.454808,50.106426,competitor,express,Brend supermarket
40.446134,50.170333,competitor,express,Nihat market
40.486791,50.16923,competitor,express,Elit Optimal Şüvəlan
40.381394,49.869461,competitor,express,Araz supermarket (Suvelan)
40.431895,49.785512,competitor,express,Rahat supermarket Ekologiya 1
40.4010905,49.7966471,competitor,express,Rahat market
40.37211,49.95107,competitor,express,Neptun Market 3 H.Aslanov
40.382935,49.871475,competitor,express,Demirchi Tower
40.383354,49.877816,competitor,express,Expressbank Xatai filiali
40.385208,49.828653,competitor,express,Caspian Plaza
40.389337,49.804226,competitor,express,Bizim market Sharifzade
40.38397,49.822992,competitor,express,Araz supermarket 6-cı paralel
40.375248,49.815685,competitor,express,Elmler Akademiyası M/S
40.375344,49.812386,competitor,express,Expressbank Elmler filiali
40.40002,49.80617,competitor,express,Zeytun market
40.398352,49.806496,competitor,express,SOCAR İnstitutu
40.375838,49.815578,competitor,express,Bakcell Yasamal
40.41132,49.8467879,competitor,express,NAR Elmler
40.396973,49.806788,competitor,express,Bakı Biznes Universiteti
40.375711,49.819492,competitor,express,Olimp-hospital
40.380163,49.822157,competitor,express,XXI ESR Tehsil Merkezi
40.388443,49.823471,competitor,express,Qala Heyat Sigorta
40.386337,49.801349,competitor,express,Dalga market
40.364357,49.818337,competitor,express,Parlament pr Kecid
40.403103,49.811375,competitor,express,20 yanvar  yarmarka
40.377987,49.831516,competitor,express,AvroMart market
40.390957,49.788914,competitor,express,Yadigar market
40.389139,49.788387,competitor,express,Spar market
40.393891,49.794462,competitor,express,Bizim market  A.Ahmedov
40.378537,49.978268,competitor,express,Imza market
40.38604,49.98132,competitor,express,Araz supermarket (Gunesli)
40.37661,49.97808,competitor,express,Bereket Market
40.475663,49.950012,competitor,express,Ayxan Market
40.356523,49.980495,competitor,express,BakuBus
40.367712,49.940043,competitor,express,Rahat market
40.402651,49.881392,competitor,express,Vergi X/M
40.386602,49.815497,competitor,express,Bazarstore (Makromart)
41.639942,46.566956,competitor,express,Balaken Postu DYP
41.722042,46.417637,competitor,express,Balaken seher DYP sobesi
40.466873,47.127251,competitor,express,Berde Postu DYP
40.401145,47.124763,competitor,express,BolMart Bərdə
40.37685,47.13492,competitor,express,Bazarstore Berde
40.402963,47.123774,competitor,express,Avtovagzal Bərdə
40.376637,47.126664,competitor,express,Expressbank Berde filiali 24/7
40.384157,49.913424,competitor,express,Neptun supermarket
40.359459,47.124147,competitor,express,Kanan market
40.376217,47.124168,competitor,express,Pasha Sigorta
40.359905,47.141949,competitor,express,Qediroglu market
40.374983,47.12187,competitor,express,Berde sheheri DYP shobesi
39.774311,47.622938,competitor,express,BolMart Beyləqan
39.774139,47.622906,competitor,express,Elit Optimal  Beyləqan
39.771932,47.622499,competitor,express,Beylaqan rayon DYP sobesi
39.46022,48.541847,competitor,express,Elit Optimal  Bilesuvar
39.454227,48.541737,competitor,express,Bilesuvar rayonu DYP sobesi
39.159786,48.571059,competitor,express,Goytepe Postu DYP
39.208444,48.493469,competitor,express,Bazarstore Cəlilabad
39.210027,48.500937,competitor,express,Celilabad rayonu DYP sobesi
39.206373,48.483288,competitor,express,Rahat Market
39.21581,48.52384,competitor,express,Bakcell Celilabad
40.525237,46.091202,competitor,express,Daskesen rayonu DYP sobesi
40.579642,45.814352,competitor,express,Gedebey sehəri DYP shobesi
40.6833632,46.3692434,competitor,express,Gence seher BDYPI
40.682151,46.369679,competitor,express,Gence seher BDYPI
40.680646,46.35814,competitor,express,Expressbank Gence filiali
40.680508,46.358349,competitor,express,Pasha Sigorta
40.676319,46.359337,competitor,express,NAR Gence
40.697168,46.361255,competitor,express,Araz supermarket
40.675156,46.360298,competitor,express,Bakcell Gəncə
40.681773,46.362288,competitor,express,Bazarstore Gence 2
40.688383,46.385627,competitor,express,BolMart
40.67488,46.3701,competitor,express,Bazarstore Gence
40.646721,46.348915,competitor,express,Mega Market
40.696155,46.373909,competitor,express,BolMart
40.705547,46.373448,competitor,express,Gəncə Regional Dövlət Miqrasiya Xidməti İdarəsi
40.689449,46.489613,competitor,express,Gence Postu DYP
40.602589,46.784264,competitor,express,Goranboy rayonu DYP sobesi
40.628007,47.739372,competitor,express,Goycay səhəri DYP sobesi
40.580799,46.316148,competitor,express,Goygol seheri DYP sobesi
40.589926,46.325742,competitor,express,Step market
39.11502,48.5955,competitor,express,Real Market
40.01211,49.1474,competitor,express,Nevahi Postu DYP
40.029761,48.954782,competitor,express,Qedirxum T/M
40.641628,46.364574,competitor,express,Haciqabul market
40.03674,48.93398,competitor,express,Haciqabul rayonu DYP sobesi
40.042123,49.063032,competitor,express,Fedek market
39.867855,48.056168,competitor,express,Imisli seheri DYP sobesi
39.8686,48.05621,competitor,express,Bazarstore Imisli
40.785441,48.145602,competitor,express,Ismayilli rayon DYP sobesi
40.721084,48.336431,competitor,express,Ismayilli Postu DYP
40.790566,48.17315,competitor,express,Nur market
40.78907,48.14888,competitor,express,Sehane Market
40.309299,48.240253,competitor,express,Kurdemir Postu DYP
40.3348,48.156401,competitor,express,Kurdemir seheri DYP sobesi
40.351712,48.162355,competitor,express,BolMart Kurdemir
40.283021,48.331926,competitor,express,Yusioil market
40.328463,48.148228,competitor,express,EFİ Ticarət Mərkəzi
40.258214,48.402756,competitor,express,EDU market
40.317439,48.215019,competitor,express,Ugur Market
38.758857,48.834741,competitor,express,Bazarstore (Makromart)
38.81296,48.826977,competitor,express,Lənkəran Regional Dövlət Miqrasiya Xidməti İdarəsi
38.758389,48.855526,competitor,express,Pasha Sigorta
38.753952,48.851355,competitor,express,Bakcell Lənkəran
38.758035,48.854132,competitor,express,Bazarstore Lənkəran
38.768083,48.846924,competitor,express,Halal market
38.762293,48.838786,competitor,express,Lankaran seheri DYP sobesi
38.809748,48.770418,competitor,express,Palıd market
38.77497,48.411777,competitor,express,Lerik rayon DYP sobesi
39.023303,48.669215,competitor,express,Bazarstore Masallı
39.038432,48.67581,competitor,express,Bazarstore (Makromart)
39.021109,48.677353,competitor,express,Masalli rayonu DYP sobesi
39.019316,48.651035,competitor,express,Cenub market
40.772659,47.053265,competitor,express,Mingecevir seheri DYP sobesi
40.76921,46.99909,competitor,express,Qediroqlu Market 3
40.7727,47.02292,competitor,express,Qediroqlu Market 2
40.770011,47.000103,competitor,express,OBA market
40.769269,47.053441,competitor,express,Expressbank Mingecevir filiali
40.771052,47.049373,competitor,express,Expressbank Mingecevir filiali 1
40.769678,47.053382,competitor,express,Bakcell Mingecevir
40.757064,47.082637,competitor,express,Qediroglu Market 6
40.767952,47.056881,competitor,express,Bazarstore market  2
40.76734,47.056638,competitor,express,Bazarstore Mingəçevir
40.765308,47.053299,competitor,express,Qədiroğlu market 7
40.7697851,46.9870397,competitor,express,Qediroqlu market 1
40.76748,47.04572,competitor,express,5+ market 1
40.759621,47.058716,competitor,express,Qediroglu Market 5
40.76773,47.056182,competitor,express,Qediroglu Market 4
40.50705,46.81382,competitor,express,Elgun Market
40.509823,46.824268,competitor,express,Naftalan seher DYP sobesi
39.383336,49.25003,competitor,express,Proqress Market
39.384035,49.244745,competitor,express,Proqress market
39.373158,49.239332,competitor,express,Neftcala seheri DYP sobesi
41.076556,47.466152,competitor,express,Oguz seheri DYP sobesi
41.419884,46.918758,competitor,express,Qax sheher DYPI
41.095383,45.371429,competitor,express,Qazax seheri DYP sobesi
41.263988,45.222938,competitor,express,Qazax Postu DYP
41.095386,45.351033,competitor,express,Anar market
41.091619,45.359337,competitor,express,Şok market
41.088203,45.35461,competitor,express,Bakcell Qazax
40.61787,48.66296,competitor,express,Qebele seher DYP
40.980552,47.848229,competitor,express,Qebele  T/M
40.528229,48.876339,competitor,express,Qobustan-Mereze Postu DYP
40.947375,45.7399406,competitor,express,Bizim market Qovlar
41.355946,48.493145,competitor,express,Quba seheri DYP sobesi
41.362196,48.566585,competitor,express,“Arena Hotel Quba”
41.3629861,48.516876,competitor,express,Yeni Market
41.3632246,48.5353312,competitor,express,Xezer Market
41.362108,48.525499,competitor,express,Bakcell Quba
41.3681954,48.5430608,competitor,express,Vahid Market
41.36297,48.528767,competitor,express,Megastore supermarket
41.36265,48.52289,competitor,express,Araz supermarket
41.361157,48.527542,competitor,express,Topdan market
41.377995,48.529481,competitor,express,Eleqant market
41.3738058,48.5237965,competitor,express,Dəniz Market
41.370425,48.544299,competitor,express,Life Store
41.559868,48.542316,competitor,express,Yalama Postu DYP
41.437064,48.433861,competitor,express,Expressbank Qusar filiali
41.4313993,48.4407918,competitor,express,Expressbank Qusar filiali 24/7
41.4178308,48.4135978,competitor,express,Petek Market
41.4152485,48.411672,competitor,express,Pioner 1 market
41.418488,48.418621,competitor,express,Pioner 6 market
41.4301161,48.4341085,competitor,express,Eynar Market
41.4268055,48.4317315,competitor,express,Pioner 4 market
41.4332342,48.434865,competitor,express,Pioner 5 market
41.4248734,48.4207901,competitor,express,Pioner supermarket
39.939739,48.378422,competitor,express,Saatli seheri DYP sobesi
39.937267,48.362831,competitor,express,Bol Market
40.016487,48.474659,competitor,express,Sabirabad seheri DYP sobesi
40.008208,48.471008,competitor,express,Elit Optimal Sabirabad
40.004805,48.470412,competitor,express,Bazarstore Sabirabad
39.963795,48.848213,competitor,express,Elsen-Gulsen T/M
41.199325,48.985145,competitor,express,Sabran rayonu DYP sobesi
41.200351,48.983098,competitor,express,Elit Optimal Şabran
41.20164,48.981513,competitor,express,Araz supermarket Şabran
41.194506,48.783523,competitor,express,Shabran Hotel & Resort
39.771767,49.171028,competitor,express,Salyan Postu DYP
39.598303,48.987484,competitor,express,Salyan seheri DYP sobesi
39.832761,48.948979,competitor,express,Ruslan T/M
39.59671,48.984833,competitor,express,Rassa market
39.769566,48.976471,competitor,express,Dereleyez T/M
39.422768,48.82132,competitor,express,Vigas Ailem market
40.565361,48.748467,competitor,express,Shirvan Restoran Shamaxi
40.634064,48.643005,competitor,express,Bakcell Samaxi
40.601274,48.685499,competitor,express,Gold Qayali market
40.638377,48.636404,competitor,express,Samaxi rayonu DYP sobesi
40.62622,48.64692,competitor,express,VIP market
40.639884,48.639313,competitor,express,Elit Optimal  Shamaxi
41.190136,47.160568,competitor,express,Seki seher DYPI
41.061977,47.142055,competitor,express,Seki Postu DYP
41.202696,47.179895,competitor,express,Bakcell Şəki
